City_ID,City,Lat,Lng,Max Temp,Humidity,Cloudiness,Wind Speed,Country,Date
0,general roca,-39.0333,-67.5833,13.53,57,100,2.11,AR,2024-06-07
1,daru,-9.0763,143.2092,26.41,87,65,5.92,PG,2024-06-07
2,haiku-pauwela,20.9219,-156.3051,27.01,74,20,11.32,US,2024-06-07
3,albany,42.6001,-73.9662,15.23,89,74,0.45,US,2024-06-07
4,waitangi,-43.9535,-176.5597,8.79,65,7,3.58,NZ,2024-06-07
5,meadow lake,34.8014,-106.5436,29.82,32,100,5.15,US,2024-06-07
6,avarua,-21.2078,-159.775,24.03,43,54,3.09,CK,2024-06-07
7,severo-yeniseyskiy,60.3725,93.0408,11.43,59,100,4.02,RU,2024-06-07
8,adamstown,-25.066,-130.1015,23.21,78,92,4.34,PN,2024-06-07
9,nuuk,64.1835,-51.7216,2.34,100,75,4.12,GL,2024-06-07
10,whitehorse,60.7161,-135.0538,19.45,21,20,3.6,CA,2024-06-07
11,isafjordur,66.0755,-23.124,0.22,93,94,2.31,IS,2024-06-07
12,bethel,41.3712,-73.414,18.2,84,0,1.54,US,2024-06-07
13,port-aux-francais,-49.35,70.2167,6.21,97,100,11.11,TF,2024-06-07
14,iqaluit,63.7506,-68.5145,-0.15,80,75,7.72,CA,2024-06-07
15,petropavlovsk-kamchatsky,53.0452,158.6483,23.33,50,0,4.47,RU,2024-06-07
16,fortuna,40.5982,-124.1573,17.18,84,0,2.57,US,2024-06-07
17,arraial do cabo,-22.9661,-42.0278,22.34,88,0,6.68,BR,2024-06-07
18,rongelap,11.1635,166.8941,28.27,80,73,6.72,MH,2024-06-07
19,bilibino,68.0546,166.4372,9.14,31,10,1.87,RU,2024-06-07
20,west island,-12.1568,96.8225,28.99,70,19,3.6,CC,2024-06-07
21,vilyuchinsk,52.9306,158.4028,24.15,41,11,2.0,RU,2024-06-07
22,pemangkat,1.1667,108.9667,26.72,83,99,2.46,ID,2024-06-07
23,longyearbyen,78.2186,15.6401,6.91,61,0,3.6,SJ,2024-06-07
24,ilulissat,69.2167,-51.1,1.01,93,75,0.0,GL,2024-06-07
25,yellowknife,62.456,-114.3525,8.29,96,100,5.14,CA,2024-06-07
26,sitka,57.0531,-135.33,18.94,32,0,5.14,US,2024-06-07
27,wailua homesteads,22.0669,-159.378,30.24,74,0,5.66,US,2024-06-07
28,eastham,41.8301,-69.9739,17.19,95,100,3.09,US,2024-06-07
29,pisco,-13.7,-76.2167,17.03,88,0,3.6,PE,2024-06-07
30,kodiak,57.79,-152.4072,7.73,87,100,8.23,US,2024-06-07
31,blackmans bay,-43.0167,147.3167,9.29,82,38,0.89,AU,2024-06-07
32,bredasdorp,-34.5322,20.0403,9.11,85,9,1.4,ZA,2024-06-07
33,canico,32.6333,-16.85,21.11,89,40,5.66,PT,2024-06-07
34,papatowai,-46.5619,169.4708,12.0,71,32,1.25,NZ,2024-06-07
35,port mathurin,-19.6833,63.4167,23.63,78,41,8.62,MU,2024-06-07
36,sandnessjoen,66.0217,12.6316,3.29,67,94,3.88,NO,2024-06-07
37,tura,25.5198,90.2201,28.19,82,2,2.72,IN,2024-06-07
38,howard springs,-12.497,131.047,24.43,45,53,4.56,AU,2024-06-07
39,la paz,-16.5,-68.15,4.99,25,3,2.57,BO,2024-06-07
40,stanley,54.868,-1.6985,9.29,78,0,4.63,GB,2024-06-07
41,nemuro,43.3236,145.575,11.96,93,100,6.15,JP,2024-06-07
42,port alfred,-33.5906,26.891,14.95,71,100,0.87,ZA,2024-06-07
43,vernon,50.2581,-119.2691,24.23,26,39,2.68,CA,2024-06-07
44,olonkinbyen,70.9221,-8.7187,2.01,85,75,4.65,SJ,2024-06-07
45,aldinga beach,-35.2793,138.4604,15.41,78,100,4.26,AU,2024-06-07
46,mari-turek,56.7895,49.6235,13.42,90,78,3.4,RU,2024-06-07
47,mejit,10.2753,170.8646,28.39,80,69,4.3,MH,2024-06-07
48,keflavik,64.0049,-22.5624,6.24,75,40,5.14,IS,2024-06-07
49,voskresenskoye,56.8381,45.4317,13.38,94,14,2.64,RU,2024-06-07
50,port elizabeth,-33.918,25.5701,10.16,93,20,1.54,ZA,2024-06-07
51,saipan,15.1355,145.701,32.39,62,40,7.2,MP,2024-06-07
52,ancud,-41.8697,-73.8203,11.36,95,100,1.82,CL,2024-06-07
53,tutoia,-2.7619,-42.2744,25.96,90,78,4.46,BR,2024-06-07
54,selkirk,50.1436,-96.8845,15.1,67,79,1.46,CA,2024-06-07
55,hermanus,-34.4187,19.2345,8.78,77,12,3.74,ZA,2024-06-07
56,ribeira grande,38.5167,-28.7,19.87,86,86,6.71,PT,2024-06-07
57,burao,9.5221,45.5336,23.11,61,5,8.69,SO,2024-06-07
58,kargat,55.1956,80.2811,17.67,90,97,2.08,RU,2024-06-07
59,arkhangel'sk,64.5401,40.5433,15.07,72,75,2.0,RU,2024-06-07
60,virginia,37.5481,-77.4467,25.06,58,0,3.09,US,2024-06-07
61,dunedin,-45.8742,170.5036,10.45,93,9,1.34,NZ,2024-06-07
62,cold lake,54.4502,-110.2017,5.97,75,100,6.17,CA,2024-06-07
63,muynoq,43.7683,59.0214,28.66,26,45,3.1,UZ,2024-06-07
64,grytviken,-54.2811,-36.5092,-5.92,75,11,4.84,GS,2024-06-07
65,puerto natales,-51.7236,-72.4875,2.75,99,100,1.09,CL,2024-06-07
66,minas de marcona,-15.2119,-75.1103,12.66,87,39,3.29,PE,2024-06-07
67,prince rupert,54.3161,-130.3201,18.05,64,0,3.6,CA,2024-06-07
68,ulsteinvik,62.3432,5.8487,10.97,76,98,0.89,NO,2024-06-07
69,ust-tsilma,65.441,52.1498,6.45,79,5,2.24,RU,2024-06-07
70,margaret river,-33.95,115.0667,17.94,68,60,6.59,AU,2024-06-07
71,nizhnyaya salda,58.0776,60.7202,9.65,93,31,2.65,RU,2024-06-07
72,tsiombe,-25.3,45.4833,18.97,94,0,2.72,MG,2024-06-07
73,hawaiian paradise park,19.5933,-154.9731,27.73,77,100,4.63,US,2024-06-07
74,manicore,-5.8092,-61.3003,27.64,60,100,0.38,BR,2024-06-07
75,thompson,55.7435,-97.8558,8.09,87,75,3.6,CA,2024-06-07
76,alofi,-19.0595,-169.9187,24.94,69,75,8.23,NU,2024-06-07
77,havre,49.5833,0.3333,11.87,87,75,3.09,FR,2024-06-07
78,grado,43.388,-6.0743,16.28,94,75,1.54,ES,2024-06-07
79,puerto ayora,-0.7393,-90.3518,21.42,98,65,2.72,EC,2024-06-07
80,geraldton,-28.7667,114.6,18.23,94,100,5.14,AU,2024-06-07
81,talakan,50.3167,130.3667,15.91,88,100,0.98,RU,2024-06-07
82,college,64.8569,-147.8028,21.71,29,40,1.54,US,2024-06-07
83,zavodoukovsk,56.5042,66.5515,13.81,90,100,4.23,RU,2024-06-07
84,colares,38.7992,-9.4469,18.52,96,100,5.81,PT,2024-06-07
85,san fernando de apure,7.8878,-67.4724,23.93,97,97,1.88,VE,2024-06-07
86,ushuaia,-54.8,-68.3,1.81,80,40,7.2,AR,2024-06-07
87,shizuishan,39.2333,106.7694,25.85,23,99,3.66,CN,2024-06-07
88,jamestown,42.097,-79.2353,16.77,82,75,3.6,US,2024-06-07
89,mount isa,-20.7333,139.5,19.87,42,0,5.66,AU,2024-06-07
90,luderitz,-26.6481,15.1594,17.12,44,0,8.72,NA,2024-06-07
91,karratha,-20.7377,116.8463,22.58,39,37,6.72,AU,2024-06-07
92,al qusiyah,27.4402,30.8184,29.15,29,0,4.45,EG,2024-06-07
93,nar'yan-mar,67.6713,53.087,1.17,92,100,3.58,RU,2024-06-07
94,luganville,-15.5333,167.1667,27.38,72,92,5.64,VU,2024-06-07
95,muroto-misakicho,33.2833,134.15,22.03,78,100,6.07,JP,2024-06-07
96,pizarro,4.9533,-77.366,26.1,89,100,0.89,CO,2024-06-07
97,invercargill,-46.4,168.35,12.79,84,34,1.34,NZ,2024-06-07
98,athens,37.9795,23.7162,27.21,54,0,3.52,GR,2024-06-07
99,inverell,-29.7833,151.1167,13.15,94,100,0.89,AU,2024-06-07
100,bowen,-20.0167,148.2333,20.63,47,0,3.39,AU,2024-06-07
101,katsuura,35.1333,140.3,21.87,72,6,3.35,JP,2024-06-07
102,kodinsk,58.6881,99.1844,16.36,41,61,3.24,RU,2024-06-07
103,birjand,32.8663,59.2211,17.26,17,0,2.06,IR,2024-06-07
104,santa vitoria do palmar,-33.5189,-53.3681,14.54,96,97,1.86,BR,2024-06-07
105,tongouson,5.0214,120.1328,28.68,73,76,1.29,PH,2024-06-07
106,lake munmorah,-33.1936,151.5719,19.33,66,51,0.89,AU,2024-06-07
107,ust-nera,64.5667,143.2,13.92,27,41,6.75,RU,2024-06-07
108,acarau,-2.8856,-40.12,25.16,88,46,4.41,BR,2024-06-07
109,touros,-5.1989,-35.4608,25.0,90,80,3.79,BR,2024-06-07
110,ketchikan,55.3422,-131.6461,19.63,29,0,4.63,US,2024-06-07
111,wewak,-3.5534,143.6268,29.1,74,11,2.53,PG,2024-06-07
112,road town,18.4167,-64.6167,28.02,83,20,1.54,VG,2024-06-07
113,el granada,37.5027,-122.4694,23.6,77,100,5.66,US,2024-06-07
114,lihue,21.9789,-159.3672,30.58,68,0,5.66,US,2024-06-07
115,fu'an,27.0892,119.6453,30.59,62,12,0.37,CN,2024-06-07
116,diffa,13.3154,12.6113,28.64,54,82,4.92,NE,2024-06-07
117,edinburgh of the seven seas,-37.0676,-12.3116,14.23,74,100,4.93,SH,2024-06-07
118,dampit,-8.2116,112.7493,27.67,65,84,1.44,ID,2024-06-07
119,afaahiti,-17.75,-149.2833,26.93,82,19,2.9,PF,2024-06-07
120,miri,4.4148,114.0089,31.08,62,20,2.57,MY,2024-06-07
121,caleta de carquin,-11.0925,-77.6267,18.78,81,20,3.93,PE,2024-06-07
122,anadyr,64.75,177.4833,4.28,64,75,3.0,RU,2024-06-07
123,kingston,17.997,-76.7936,28.53,79,20,7.2,JM,2024-06-07
124,dakhla,23.6848,-15.958,20.28,95,2,5.19,EH,2024-06-07
125,riachao das neves,-11.7461,-44.91,20.06,46,0,1.39,BR,2024-06-07
126,holualoa,19.6228,-155.9522,24.91,82,100,3.6,US,2024-06-07
127,shindand,33.3029,62.1474,22.66,14,0,4.81,AF,2024-06-07
128,yambio,4.5721,28.3955,21.04,98,99,1.11,SS,2024-06-07
129,polyarnyy,69.1989,33.4478,8.58,61,91,5.83,RU,2024-06-07
130,starokamyshinsk,55.0554,61.6031,13.1,95,100,3.65,RU,2024-06-07
131,georgetown,5.4112,100.3354,30.97,72,20,1.54,MY,2024-06-07
132,nadym,65.5333,72.5167,6.09,74,17,4.94,RU,2024-06-07
133,sao joao da barra,-21.6403,-41.0511,22.76,85,0,3.11,BR,2024-06-07
134,san patricio,28.017,-97.5169,29.35,70,0,5.09,US,2024-06-07
135,cabo san lucas,22.8909,-109.9124,30.17,54,20,6.71,MX,2024-06-07
136,saint-pierre,-21.3393,55.4781,19.82,64,0,4.12,RE,2024-06-07
137,namibe,-15.1961,12.1522,18.5,65,0,1.95,AO,2024-06-07
138,hamilton,39.1834,-84.5333,21.35,59,0,0.89,US,2024-06-07
139,seeb,23.6703,58.1891,33.02,54,1,3.37,OM,2024-06-07
140,ishim,56.1128,69.4902,13.35,96,97,4.92,RU,2024-06-07
141,labrador city,52.9463,-66.9114,16.95,63,0,1.03,CA,2024-06-07
142,taltal,-25.4,-70.4833,14.35,90,51,2.22,CL,2024-06-07
143,fort-shevchenko,44.5086,50.263,20.85,85,0,5.69,KZ,2024-06-07
144,namie,37.4833,141.0,27.06,67,100,0.89,JP,2024-06-07
145,klyuchi,52.2667,79.1667,20.76,69,9,5.88,RU,2024-06-07
146,walvis bay,-22.9575,14.5053,20.53,26,6,10.8,NA,2024-06-07
147,rio grande,-32.035,-52.0986,16.08,97,75,2.67,BR,2024-06-07
148,inari,68.906,27.0288,8.87,79,100,2.59,FI,2024-06-07
149,san antonio de pale,-1.4014,5.6325,25.03,73,92,4.4,GQ,2024-06-07
150,san luis obispo,35.3666,-120.5343,19.01,70,0,2.57,US,2024-06-07
151,deqen,29.9618,90.7188,12.53,52,5,2.81,CN,2024-06-07
152,puente alto,-33.6167,-70.5833,14.5,38,100,0.95,CL,2024-06-07
153,portland,45.5234,-122.6762,29.19,36,0,5.14,US,2024-06-07
154,atafu village,-8.5421,-172.5159,29.44,71,6,3.67,TK,2024-06-07
155,pudasjarvi,65.3833,26.9167,8.25,66,5,1.27,FI,2024-06-07
156,freetown,8.484,-13.2299,26.57,87,100,3.64,SL,2024-06-07
157,lebu,-37.6167,-73.65,13.65,98,100,1.9,CL,2024-06-07
158,harlingen,26.1906,-97.6961,30.05,88,0,4.63,US,2024-06-07
159,poronaysk,49.2167,143.1167,14.82,78,100,5.31,RU,2024-06-07
160,susuman,62.7833,148.1667,7.21,53,100,6.26,RU,2024-06-07
161,hasaki,35.7333,140.8333,27.38,70,69,2.5,JP,2024-06-07
162,mao,39.8885,4.2658,23.31,73,20,7.72,ES,2024-06-07
163,iskateley,67.6803,53.1512,1.12,92,100,3.58,RU,2024-06-07
164,uturoa,-16.7333,-151.4333,26.36,79,2,2.71,PF,2024-06-07
165,och'amch'ire,42.7123,41.4686,18.11,92,71,1.88,GE,2024-06-07
166,tofol,5.3248,163.0078,30.88,70,75,3.09,FM,2024-06-07
167,manggar,-2.8833,108.2667,29.62,71,9,4.72,ID,2024-06-07
168,puerto baquerizo moreno,-0.9,-89.6,21.52,88,78,4.13,EC,2024-06-07
169,chulym,55.0997,80.9572,17.37,93,100,3.05,RU,2024-06-07
170,felipe carrillo puerto,19.5833,-88.05,27.81,79,14,2.32,MX,2024-06-07
171,kerikeri,-35.2268,173.9474,18.84,93,100,2.24,NZ,2024-06-07
172,borkum,53.5809,6.6915,13.97,70,100,8.36,DE,2024-06-07
173,lamu,-2.2717,40.902,26.21,77,98,6.71,KE,2024-06-07
174,nelson bay,-32.7167,152.15,18.89,67,79,1.34,AU,2024-06-07
175,leribe,-28.8718,28.045,3.33,78,0,1.14,LS,2024-06-07
176,kapuskasing,49.4169,-82.4331,14.05,94,100,5.14,CA,2024-06-07
177,bandarbeyla,9.4942,50.8122,27.32,71,59,10.28,SO,2024-06-07
178,tomatlan,19.9333,-105.25,24.36,78,3,1.47,MX,2024-06-07
179,nova sintra,14.8667,-24.7167,24.49,76,84,4.07,CV,2024-06-07
180,merrill,45.1805,-89.6835,17.87,65,0,0.0,US,2024-06-07
181,constitucion,-35.3333,-72.4167,14.27,91,100,0.65,CL,2024-06-07
182,aykhal,66.0,111.5,13.67,56,100,5.76,RU,2024-06-07
183,xifeng,42.7372,124.7222,19.09,79,94,6.33,CN,2024-06-07
184,sinabang,2.4803,96.3801,28.55,70,100,1.22,ID,2024-06-07
185,fort drum,44.0584,-75.7619,15.65,88,100,4.63,US,2024-06-07
186,les anglais,18.3054,-74.2197,25.91,78,52,2.94,HT,2024-06-07
187,ola,59.5833,151.2833,5.08,96,100,2.01,RU,2024-06-07
188,verkhnevilyuysk,63.4453,120.3167,23.1,37,80,2.45,RU,2024-06-07
189,tucano,-10.9631,-38.7867,20.55,97,16,1.48,BR,2024-06-07
190,nadi,-17.8,177.4167,30.0,45,75,3.6,FJ,2024-06-07
191,bijar,35.8668,47.6051,12.85,63,0,1.27,IR,2024-06-07
192,lisala,2.15,21.5167,21.07,97,100,0.62,CD,2024-06-07
193,sarmiento,-45.5882,-69.07,8.93,73,100,4.29,AR,2024-06-07
194,galesong,-5.3166,119.3661,29.01,70,28,0.59,ID,2024-06-07
195,lorengau,-2.0226,147.2712,29.13,71,99,1.46,PG,2024-06-07
196,boguchany,58.3814,97.4531,16.03,46,92,4.02,RU,2024-06-07
197,cristalina,-16.7686,-47.6136,16.93,66,50,1.91,BR,2024-06-07
198,hithadhoo,-0.6,73.0833,28.34,74,99,5.06,MV,2024-06-07
199,oyama,36.3,139.8,26.44,45,36,1.88,JP,2024-06-07
200,iquique,-20.2208,-70.1431,17.02,73,41,0.27,CL,2024-06-07
201,chiredzi,-21.05,31.6667,13.24,87,0,2.17,ZW,2024-06-07
202,tazacorte,28.629,-17.9293,20.54,82,0,3.13,ES,2024-06-07
203,nohar,29.1833,74.7667,33.9,22,88,2.74,IN,2024-06-07
204,lompoc,34.6391,-120.4579,21.08,84,100,1.54,US,2024-06-07
205,nellore,14.4333,79.9667,28.16,70,100,0.59,IN,2024-06-07
206,qaqortoq,60.7167,-46.0333,2.31,98,100,0.33,GL,2024-06-07
207,kununurra,-15.7667,128.7333,22.99,33,33,6.17,AU,2024-06-07
208,jiazi,22.8779,116.067,25.06,90,100,4.87,CN,2024-06-07
209,constantia,44.1833,28.65,17.61,68,0,2.37,RO,2024-06-07
210,bannu,32.9854,70.6027,29.63,28,0,1.97,PK,2024-06-07
211,tiksi,71.6872,128.8694,3.36,76,35,3.65,RU,2024-06-07
212,hanceville,34.0607,-86.7675,21.97,68,0,1.48,US,2024-06-07
213,utrik,11.2278,169.8474,28.29,80,100,4.81,MH,2024-06-07
214,porto barra do ivinheima,-22.9667,-53.6667,19.68,59,6,1.7,BR,2024-06-07
215,brookings,44.3114,-96.7984,18.39,74,75,2.57,US,2024-06-07
216,hadibu,12.65,54.0333,28.79,77,56,7.59,YE,2024-06-07
217,cockburn town,21.4612,-71.1419,27.86,82,100,4.44,TC,2024-06-07
218,vavatenina,-17.4667,49.2,15.92,96,7,1.34,MG,2024-06-07
219,santa monica,34.0195,-118.4912,25.13,84,100,4.12,US,2024-06-07
220,saudarkrokur,65.7461,-19.6394,2.05,100,100,9.12,IS,2024-06-07
221,betio village,1.358,172.9211,26.02,75,36,3.38,KI,2024-06-07
222,maxixe,-23.8597,35.3472,21.46,63,42,8.62,MZ,2024-06-07
223,alta,69.9689,23.2717,8.59,87,75,6.17,NO,2024-06-07
224,skoghall,59.3232,13.4655,7.31,93,100,2.06,SE,2024-06-07
225,manthani,18.65,79.6667,31.14,57,70,4.19,IN,2024-06-07
226,mutuali,-14.8706,37.0044,17.05,61,2,0.91,MZ,2024-06-07
227,wladyslawowo,54.7909,18.4009,13.21,87,62,3.98,PL,2024-06-07
228,port macquarie,-31.4333,152.9167,20.5,49,0,2.03,AU,2024-06-07
229,abu dhabi,24.4667,54.3667,32.19,60,0,1.54,AE,2024-06-07
230,eraan,9.0629,117.7016,30.72,65,85,0.68,PH,2024-06-07
231,kyren,51.6828,102.1408,18.86,55,45,0.45,RU,2024-06-07
232,colonel hill,22.7667,-74.2167,27.89,74,100,1.9,BS,2024-06-07
233,broken hill,-31.95,141.4333,12.76,60,81,4.78,AU,2024-06-07
234,komatipoort,-25.4332,31.9548,16.07,61,5,4.84,ZA,2024-06-07
235,tamandare,-8.7597,-35.1047,24.14,91,97,0.75,BR,2024-06-07
236,na wa,17.4897,104.1006,30.02,93,100,2.53,TH,2024-06-07
237,olonets,60.9847,32.9698,8.97,82,4,1.7,RU,2024-06-07
238,st. john's,47.5649,-52.7093,8.97,94,100,1.03,CA,2024-06-07
239,punta arenas,-53.15,-70.9167,3.06,93,75,2.57,CL,2024-06-07
240,san luis de la loma,17.2706,-100.8939,25.99,78,100,2.22,MX,2024-06-07
241,barra de santo antonio,-9.4047,-35.5072,23.6,89,100,2.27,BR,2024-06-07
242,sitangkai,4.6628,119.3928,28.84,73,100,3.21,PH,2024-06-07
243,cookeville,36.1628,-85.5016,19.5,75,0,0.0,US,2024-06-07
244,mirpur sakro,24.5474,67.6277,29.59,76,2,8.53,PK,2024-06-07
245,onega,63.9061,38.1404,7.4,96,100,3.35,RU,2024-06-07
246,aasiaat,68.7098,-52.8699,0.63,88,100,1.77,GL,2024-06-07
247,enewetak,11.3474,162.3373,28.36,81,90,7.49,MH,2024-06-07
248,pandan,14.0453,124.1694,30.97,67,75,1.8,PH,2024-06-07
249,clayton,33.5335,-84.3666,25.2,59,0,3.6,US,2024-06-07
250,abashiri,44.0213,144.2697,26.16,50,40,5.14,JP,2024-06-07
251,shahpura,27.3833,75.9667,32.75,29,1,5.1,IN,2024-06-07
252,talnakh,69.4865,88.3972,-1.55,91,99,4.13,RU,2024-06-07
253,turbat,26.0023,63.044,29.87,54,42,3.14,PK,2024-06-07
254,shakawe,-18.3667,21.85,8.12,42,0,3.04,BW,2024-06-07
255,kristiansund,63.1115,7.732,9.36,78,14,2.57,NO,2024-06-07
256,torquay,50.4638,-3.5143,12.18,85,0,0.45,GB,2024-06-07
257,karsun,54.1994,46.9827,15.93,96,100,2.49,RU,2024-06-07
258,coquimbo,-29.9533,-71.3436,11.85,100,100,1.03,CL,2024-06-07
259,zheleznogorsk-ilimskiy,56.5768,104.1217,15.76,39,82,1.34,RU,2024-06-07
260,guanare,9.0418,-69.7421,23.04,97,100,1.0,VE,2024-06-07
261,kaa-khem,51.6833,94.7333,19.11,53,12,1.34,RU,2024-06-07
262,bunol,39.4167,-0.7833,20.7,53,59,1.83,ES,2024-06-07
263,sangkhla buri,15.1555,98.4536,23.88,95,100,0.19,TH,2024-06-07
264,navrongo,10.8956,-1.0921,27.48,68,100,2.36,GH,2024-06-07
265,atchison,39.563,-95.1216,26.75,66,100,4.2,US,2024-06-07
266,shitanjing,39.2342,106.3439,23.25,20,100,1.58,CN,2024-06-07
267,la'ie,21.6477,-157.9253,30.98,74,20,2.24,US,2024-06-07
268,kuchinda,21.7333,84.35,33.82,42,8,3.14,IN,2024-06-07
269,kill devil hills,36.0307,-75.676,26.01,72,0,0.0,US,2024-06-07
270,cole harbour,44.6724,-63.4751,14.66,95,97,6.17,CA,2024-06-07
271,chegdomyn,51.1167,133.0167,19.34,62,98,2.61,RU,2024-06-07
272,howrah,22.5892,88.3103,31.0,74,40,5.14,IN,2024-06-07
273,qui nhon,13.7667,109.2333,32.06,58,100,1.04,VN,2024-06-07
274,bontang,0.1333,117.5,25.7,89,100,2.23,ID,2024-06-07
275,buala,-8.145,159.5921,29.35,72,70,4.42,SB,2024-06-07
276,alakurtti,66.9672,30.3491,10.33,91,100,1.45,RU,2024-06-07
277,hammerfest,70.6634,23.6821,8.25,93,75,2.57,NO,2024-06-07
278,satkhira,22.7167,89.1,33.28,59,100,5.95,BD,2024-06-07
279,flying fish cove,-10.4217,105.6791,26.82,83,100,5.66,CX,2024-06-07
280,kapa'a,22.0752,-159.319,30.99,75,0,5.66,US,2024-06-07
281,mauganj,24.6833,81.8833,35.89,20,2,6.79,IN,2024-06-07
282,abbeville,50.1,1.8333,10.27,92,3,2.16,FR,2024-06-07
283,atasu,48.6814,71.6433,20.78,64,27,6.16,KZ,2024-06-07
284,mata-utu,-13.2816,-176.1745,28.19,75,91,7.39,WF,2024-06-07
285,port shepstone,-30.7414,30.455,15.34,77,72,6.55,ZA,2024-06-07
286,rundu,-17.9333,19.7667,9.42,39,4,4.1,NA,2024-06-07
287,anaconda,46.1285,-112.9423,24.55,44,9,3.76,US,2024-06-07
288,taroa,8.7058,171.2275,28.65,78,73,5.62,MH,2024-06-07
289,sumbe,-11.2061,13.8437,21.0,87,1,1.21,AO,2024-06-07
290,ebon,4.582,168.6964,28.78,73,76,4.56,MH,2024-06-07
291,mawu,29.5923,107.3139,19.74,87,100,0.28,CN,2024-06-07
292,champua,22.0833,85.6667,33.33,38,0,3.41,IN,2024-06-07
293,isoka,-10.1606,32.6335,12.98,77,6,0.46,ZM,2024-06-07
294,kone,-21.0595,164.8658,28.89,44,3,4.63,NC,2024-06-07
295,cabedelo,-6.9811,-34.8339,24.37,85,100,3.06,BR,2024-06-07
296,pangai,-19.8,-174.35,26.06,65,40,6.69,TO,2024-06-07
297,jaisalmer,26.9147,70.9181,31.29,44,43,7.62,IN,2024-06-07
298,northam,51.0333,-4.2167,13.12,91,100,5.45,GB,2024-06-07
299,marsa alam,25.0757,34.8918,31.64,33,6,3.71,EG,2024-06-07
300,aktau,43.65,51.2,22.32,76,100,6.8,KZ,2024-06-07
301,shenjiamen,29.9576,122.298,21.9,91,95,3.27,CN,2024-06-07
302,mesquite,32.7668,-96.5992,31.7,69,0,3.13,US,2024-06-07
303,olyokminsk,60.3736,120.4264,23.08,27,0,1.24,RU,2024-06-07
304,tocopilla,-22.092,-70.1979,18.06,69,50,2.5,CL,2024-06-07
305,novoishimskiy,53.1981,66.7694,19.45,76,18,1.55,KZ,2024-06-07
306,bani walid,31.7566,13.9942,21.93,41,0,1.98,LY,2024-06-07
307,parabel',58.6978,81.4825,13.28,66,99,2.68,RU,2024-06-07
308,vorgashor,67.5833,63.95,-1.22,93,100,4.0,RU,2024-06-07
309,tchibanga,-2.85,11.0333,19.79,93,99,0.7,GA,2024-06-07
310,bishkul,54.7803,69.1033,17.19,88,0,3.0,KZ,2024-06-07
311,bulayevo,54.9056,70.4439,15.92,81,95,5.33,KZ,2024-06-07
312,yuzhno-kurilsk,44.0306,145.8556,15.76,77,73,5.4,RU,2024-06-07
313,coronel dorrego,-38.7187,-61.2873,15.29,52,100,4.19,AR,2024-06-07
314,ambon,-3.6954,128.1814,27.71,95,40,1.54,ID,2024-06-07
315,egilsstadir,65.2653,-14.3948,1.95,75,100,4.12,IS,2024-06-07
316,sao caetano de odivelas,-0.75,-48.02,23.66,98,100,2.37,BR,2024-06-07
317,codrington,-38.2667,141.9667,13.05,73,100,1.67,AU,2024-06-07
318,chui,-33.6971,-53.4616,14.3,95,99,2.07,UY,2024-06-07
319,shache,38.4167,77.2406,22.02,31,100,0.81,CN,2024-06-07
320,toliara,-23.35,43.6667,21.21,83,0,0.53,MG,2024-06-07
321,el hamma,33.8915,9.7963,28.51,28,1,2.29,TN,2024-06-07
322,papar,5.7333,115.9333,31.0,79,100,1.46,MY,2024-06-07
323,mildura,-34.2,142.15,14.14,62,99,5.34,AU,2024-06-07
324,dogonbadan,30.3586,50.7981,24.05,33,0,1.03,IR,2024-06-07
325,marang,5.2056,103.2059,31.95,80,100,1.11,MY,2024-06-07
326,shushi,39.7589,46.7492,13.75,84,58,0.91,AZ,2024-06-07
327,tralee,52.2704,-9.7026,11.73,86,100,4.4,IE,2024-06-07
328,ghat,24.9647,10.1728,29.56,21,0,2.0,LY,2024-06-07
329,hirara,24.8,125.2833,28.92,94,75,7.2,JP,2024-06-07
330,guanica,17.9716,-66.908,28.88,85,64,3.81,PR,2024-06-07
331,north bend,43.4065,-124.2243,23.47,72,0,7.2,US,2024-06-07
332,prado,-17.3411,-39.2208,22.2,89,9,2.03,BR,2024-06-07
333,fairmont,39.4851,-80.1426,20.65,77,0,1.99,US,2024-06-07
334,puerto deseado,-47.7503,-65.8938,7.26,83,30,4.47,AR,2024-06-07
335,ciudad lazaro cardenas,17.9583,-102.2,26.07,75,100,3.47,MX,2024-06-07
336,dudinka,69.4058,86.1778,-1.29,96,99,8.05,RU,2024-06-07
337,przysucha,51.3586,20.6289,13.68,80,100,1.71,PL,2024-06-07
338,lautoka,-17.6167,177.4667,29.92,45,75,3.6,FJ,2024-06-07
339,fisterra,42.9049,-9.2629,15.42,91,97,6.12,ES,2024-06-07
340,vadso,70.0744,29.7487,6.49,87,100,11.32,NO,2024-06-07
341,galle,6.0367,80.217,27.7,80,100,6.0,LK,2024-06-07
342,san juan de uraba,8.7592,-76.5297,26.28,86,100,0.78,CO,2024-06-07
343,tarawa,1.419,172.984,26.05,94,75,1.03,KI,2024-06-07
344,vilyuysk,63.7553,121.6247,21.11,46,100,3.13,RU,2024-06-07
345,mahina,-17.5065,-149.489,27.87,74,75,2.06,PF,2024-06-07
346,vershino-darasunskiy,52.35,115.5167,7.34,91,100,3.14,RU,2024-06-07
347,gadzhiyevo,69.2551,33.3362,8.41,62,96,6.56,RU,2024-06-07
348,guerrero negro,27.9769,-114.0611,17.6,82,43,7.93,MX,2024-06-07
349,huangshan,29.7114,118.3125,24.85,77,64,0.38,CN,2024-06-07
350,bonthe,7.5264,-12.505,26.35,84,100,2.3,SL,2024-06-07
351,kamakwie,9.5,-12.2333,24.52,97,100,1.34,SL,2024-06-07
352,bafoulabe,13.8065,-10.8321,33.48,27,3,1.5,ML,2024-06-07
353,west bay,19.3667,-81.4167,27.04,93,20,3.09,KY,2024-06-07
354,zuni pueblo,35.0725,-108.8506,26.35,24,100,9.75,US,2024-06-07
355,cranbrook,49.4999,-115.7688,22.91,18,20,3.6,CA,2024-06-07
356,taber,49.8167,-112.1518,19.0,30,45,2.57,CA,2024-06-07
357,benguela,-12.5763,13.4055,20.57,86,32,1.45,AO,2024-06-07
358,medina,24.4686,39.6142,32.24,9,0,2.57,SA,2024-06-07
359,rio gallegos,-51.6226,-69.2181,2.03,93,20,2.06,AR,2024-06-07
360,hami,42.8,93.45,29.22,10,5,2.5,CN,2024-06-07
361,tazovsky,67.4667,78.7,2.65,87,84,5.44,RU,2024-06-07
362,gdov,58.7406,27.8122,11.8,78,100,2.54,RU,2024-06-07
363,navasota,30.388,-96.0877,31.17,76,0,2.41,US,2024-06-07
364,happy valley-goose bay,53.3168,-60.3315,13.17,88,20,2.06,CA,2024-06-07
365,awjilah,29.1081,21.2869,21.34,63,0,6.12,LY,2024-06-07
366,ouesso,1.6136,16.0517,21.86,96,100,0.35,CG,2024-06-07
367,camapua,-19.5314,-54.0439,21.1,48,0,2.59,BR,2024-06-07
368,oltinko'l,40.8011,72.1634,25.35,28,4,2.95,UZ,2024-06-07
369,san julian,21.0167,-102.1667,22.81,40,98,7.64,MX,2024-06-07
370,qamdo,31.1667,97.2333,13.05,43,30,0.76,CN,2024-06-07
371,el rama,12.1596,-84.2195,25.39,94,100,1.56,NI,2024-06-07
372,ati,13.2154,18.3353,30.36,44,60,5.45,TD,2024-06-07
373,mizan teferi,6.9833,35.5833,17.01,96,99,1.28,ET,2024-06-07
374,khandyga,62.6667,135.6,21.17,43,6,1.32,RU,2024-06-07
375,hilo,19.7297,-155.09,27.85,79,100,4.63,US,2024-06-07
376,kabalo,-6.05,26.9167,19.16,35,0,2.02,CD,2024-06-07
377,langepas,61.2544,75.2124,11.74,74,100,2.12,RU,2024-06-07
378,syumsi,57.1111,51.6149,14.03,85,41,2.3,RU,2024-06-07
379,udachny,66.4167,112.4,15.25,50,100,4.1,RU,2024-06-07
380,hengshui,37.7322,115.7011,29.31,35,100,2.92,CN,2024-06-07
381,wagar,16.1525,36.2032,34.64,21,0,2.84,SD,2024-06-07
382,oodweyne,9.4092,45.064,23.65,58,29,8.16,SO,2024-06-07
383,masterton,-40.9597,175.6575,14.38,62,23,1.47,NZ,2024-06-07
384,soio,-6.1349,12.3689,22.03,90,100,3.76,AO,2024-06-07
385,darwin,-12.4611,130.8418,24.47,34,0,5.66,AU,2024-06-07
386,aitape,-3.1374,142.3475,29.81,68,74,2.37,PG,2024-06-07
387,kilju,40.9642,129.3278,17.16,89,100,0.46,KP,2024-06-07
388,mandalgovi,45.7625,106.2708,22.01,25,6,4.3,MN,2024-06-07
389,playas,-2.6333,-80.3833,23.01,86,89,5.81,EC,2024-06-07
390,phumi veal sre,10.9808,104.7783,32.02,58,100,4.83,KH,2024-06-07
391,ligatne,57.2343,25.0406,9.58,96,100,1.23,LV,2024-06-07
392,mogadishu,2.0371,45.3438,26.07,86,100,8.41,SO,2024-06-07
393,bhamo,24.2667,97.2333,24.42,98,100,0.64,MM,2024-06-07
394,yangquan,37.8575,113.5633,27.04,29,100,4.39,CN,2024-06-07
395,wotje,9.4543,170.2367,28.46,78,26,4.0,MH,2024-06-07
396,tukrah,32.5341,20.5791,21.26,90,0,1.6,LY,2024-06-07
397,pleiku,13.9833,108.0,27.34,66,100,2.57,VN,2024-06-07
398,posse,-14.0931,-46.3694,19.97,59,0,3.36,BR,2024-06-07
399,gwanda,-20.9333,29.0,11.16,67,0,5.85,ZW,2024-06-07
400,mana,5.6592,-53.7767,26.0,88,100,3.41,GF,2024-06-07
401,forster,-32.1667,152.5167,19.6,57,2,3.87,AU,2024-06-07
402,hue,16.4667,107.6,31.06,74,40,1.03,VN,2024-06-07
403,kalemie,-5.9475,29.1947,20.11,58,4,0.7,CD,2024-06-07
404,hola,51.5377,23.1902,14.1,96,61,2.87,PL,2024-06-07
405,barra do corda,-5.5,-45.25,25.85,66,92,0.45,BR,2024-06-07
406,tual,-5.6667,132.75,26.69,80,91,9.96,ID,2024-06-07
407,fuxin,42.0156,121.6589,23.38,56,20,4.61,CN,2024-06-07
408,quelimane,-17.8786,36.8883,21.97,94,40,1.14,MZ,2024-06-07
409,abadeh,31.1608,52.6506,13.95,35,0,2.06,IR,2024-06-07
410,kidal,18.4411,1.4078,33.49,26,0,8.21,ML,2024-06-07
411,conception bay south,47.4999,-52.9981,8.84,95,72,1.96,CA,2024-06-07
412,gaigeturi,33.4644,126.3183,20.03,94,100,2.57,KR,2024-06-07
413,kiffa,16.6166,-11.4045,33.82,25,62,2.84,MR,2024-06-07
414,amurzet,47.6967,131.0981,21.98,57,100,9.07,RU,2024-06-07
415,leava,-14.3,-178.1667,27.75,68,80,6.47,WF,2024-06-07
416,vorkuta,67.5,64.0,-1.05,93,100,0.89,RU,2024-06-07
417,chandler,33.3062,-111.8412,41.04,11,0,6.17,US,2024-06-07
418,longboat key,27.4125,-82.659,29.49,57,0,3.09,US,2024-06-07
419,port lincoln,-34.7333,135.8667,14.22,73,100,4.33,AU,2024-06-07
420,palu,-0.8917,119.8707,29.8,80,83,0.71,ID,2024-06-07
421,mili,6.0815,171.735,28.87,73,37,4.87,MH,2024-06-07
422,badger,64.8,-147.5333,21.66,30,40,1.54,US,2024-06-07
423,kavaratti,10.5669,72.642,27.31,83,100,7.12,IN,2024-06-07
424,plastun,44.7561,136.2939,20.94,50,100,3.58,RU,2024-06-07
425,mossendjo,-2.9506,12.7261,18.75,91,74,0.71,CG,2024-06-07
426,selfoss,63.9331,-20.9971,6.03,69,73,3.84,IS,2024-06-07
427,les avirons,-21.2418,55.3394,18.05,64,0,4.12,RE,2024-06-07
428,vainode,56.4333,21.8667,12.99,97,100,2.49,LV,2024-06-07
429,laojunmiao,39.8333,97.7333,19.84,23,90,2.37,CN,2024-06-07
430,praia da vitoria,38.7333,-27.0667,18.75,88,20,3.46,PT,2024-06-07
431,ljusdal,61.8288,16.0913,5.72,87,25,1.18,SE,2024-06-07
432,okhotsk,59.3833,143.3,3.81,93,100,2.11,RU,2024-06-07
433,port augusta,-32.5,137.7667,14.46,63,100,1.16,AU,2024-06-07
434,zomba,-15.386,35.3188,15.58,52,0,0.77,MW,2024-06-07
435,gaiman,-43.2897,-65.4929,11.48,58,100,2.8,AR,2024-06-07
436,matadi,-5.8167,13.45,20.23,94,69,1.37,CD,2024-06-07
437,siwa oasis,29.2041,25.5195,26.92,52,0,4.31,EG,2024-06-07
438,lefka,35.1106,32.8506,24.49,38,0,1.87,CY,2024-06-07
439,crane,31.3974,-102.3501,33.07,26,0,9.34,US,2024-06-07
440,susanville,40.4163,-120.653,29.34,20,5,2.24,US,2024-06-07
441,tolanaro,-25.0319,46.9987,18.04,100,20,0.0,MG,2024-06-07
442,fort bragg,35.139,-79.006,25.75,68,0,0.0,US,2024-06-07
443,yaren,-0.5472,166.916,29.19,67,83,2.88,NR,2024-06-07
444,cestos city,5.46,-9.5828,25.67,88,93,3.15,LR,2024-06-07
445,santa luzia,-19.7697,-43.8514,19.5,74,0,2.57,BR,2024-06-07
446,chingirlau,51.095,54.0814,19.22,86,49,3.15,KZ,2024-06-07
447,inhambane,-23.865,35.3833,21.78,63,42,9.45,MZ,2024-06-07
448,pirallahi,40.4723,50.333,23.08,87,11,8.04,AZ,2024-06-07
449,ciudad madero,22.2667,-97.8333,29.11,84,40,2.57,MX,2024-06-07
450,bel ombre,-4.6167,55.4167,27.91,78,20,3.09,SC,2024-06-07
451,jasper,37.2001,-94.3502,27.23,62,0,4.12,US,2024-06-07
452,tidjikja,18.5564,-11.4271,35.37,21,62,5.28,MR,2024-06-07
453,hualien city,23.9769,121.6044,28.57,87,52,2.46,TW,2024-06-07
454,bulgan,48.8125,103.5347,20.97,40,23,2.04,MN,2024-06-07
455,newman,37.3138,-121.0208,32.13,41,60,1.79,US,2024-06-07
456,luwuk,-0.9516,122.7875,26.75,79,85,2.64,ID,2024-06-07
457,portstewart,55.1813,-6.714,9.84,79,100,8.31,GB,2024-06-07
458,nantucket,41.2835,-70.0995,17.06,99,100,3.6,US,2024-06-07
459,gaoual,11.75,-13.2,26.31,80,20,2.03,GN,2024-06-07
460,nova olimpia,-14.7972,-57.2881,22.35,44,0,1.59,BR,2024-06-07
461,castillos,-34.1667,-53.8333,13.29,94,93,1.48,UY,2024-06-07
462,ta`u,-14.2336,-169.5144,27.46,67,21,7.34,AS,2024-06-07
463,pacific grove,36.6177,-121.9166,17.42,87,75,5.14,US,2024-06-07
464,vilhena,-12.7406,-60.1458,20.34,59,0,1.77,BR,2024-06-07
465,piracicaba,-22.7253,-47.6492,16.84,62,0,1.13,BR,2024-06-07
466,ujae,8.9322,165.7642,28.36,82,100,6.81,MH,2024-06-07
467,ivdel',60.6911,60.4206,11.13,98,14,1.79,RU,2024-06-07
468,maragogi,-9.0122,-35.2225,23.91,90,100,0.21,BR,2024-06-07
469,phetchabun,16.25,101.0833,29.15,79,86,1.85,TH,2024-06-07
470,new norfolk,-42.7826,147.0587,9.95,62,33,0.96,AU,2024-06-07
471,waingapu,-9.6567,120.2641,28.51,67,31,6.47,ID,2024-06-07
472,katabu,-4.9333,122.5167,29.1,71,47,3.32,ID,2024-06-07
473,alice springs,-23.7,133.8833,14.75,55,0,3.6,AU,2024-06-07
474,nogliki,51.8333,143.1667,11.3,93,100,3.58,RU,2024-06-07
475,magadan,59.5667,150.8,4.74,97,100,1.2,RU,2024-06-07
476,cidreira,-30.1811,-50.2056,17.28,90,7,2.45,BR,2024-06-07
477,yavas,54.4159,42.8491,14.51,98,56,3.13,RU,2024-06-07
478,zaraysk,54.7653,38.8836,17.95,87,100,4.07,RU,2024-06-07
479,bonanza,14.0289,-84.591,23.84,95,100,1.45,NI,2024-06-07
480,swift current,50.2834,-107.8014,18.45,22,0,9.26,CA,2024-06-07
481,vuktyl,63.8567,57.3094,11.73,73,7,0.89,RU,2024-06-07
482,naze,28.3667,129.4833,22.51,95,100,6.38,JP,2024-06-07
483,bandon,51.7469,-8.7425,10.77,92,45,2.28,IE,2024-06-07
484,guichon,-32.35,-57.2,18.55,95,74,2.7,UY,2024-06-07
485,colonia,50.9333,6.95,12.12,85,0,0.51,DE,2024-06-07
486,carnarvon,-24.8667,113.6333,24.35,65,30,6.98,AU,2024-06-07
487,pasni,25.2631,63.471,28.3,88,8,5.34,PK,2024-06-07
488,saint-francois,46.4154,3.9054,16.69,88,0,1.03,FR,2024-06-07
489,pitimbu,-7.4706,-34.8086,24.33,86,100,3.36,BR,2024-06-07
490,kanniyakumari,8.0833,77.5667,27.29,82,100,6.23,IN,2024-06-07
491,franceville,-1.6333,13.5836,22.54,84,100,1.03,GA,2024-06-07
492,al kharijah,25.4514,30.5464,29.42,21,0,4.01,EG,2024-06-07
493,macapa,0.0389,-51.0664,26.99,89,75,1.03,BR,2024-06-07
494,borogontsy,62.6683,131.1683,25.08,29,0,2.21,RU,2024-06-07
495,khalkhal,37.6189,48.5258,14.33,50,54,3.39,IR,2024-06-07
496,westport,41.1415,-73.3579,20.9,70,75,6.17,US,2024-06-07
497,santiago de cao,-7.9589,-79.2392,16.07,100,100,4.12,PE,2024-06-07
498,zheleznodorozhnyy,55.7503,38.0042,15.75,70,100,5.36,RU,2024-06-07
499,dededo village,13.5178,144.8391,30.9,65,40,7.2,GU,2024-06-07
500,chernyshevsk,52.5243,117.0174,8.85,79,100,4.55,RU,2024-06-07
501,bogande,12.9714,-0.1436,29.73,57,65,3.93,BF,2024-06-07
502,raja,8.4596,25.678,22.62,89,100,0.22,SS,2024-06-07
503,pillaro,-1.1667,-78.5333,11.19,97,100,1.92,EC,2024-06-07
504,portage la prairie,49.9728,-98.2926,16.73,78,43,3.24,CA,2024-06-07
505,dul'durga,50.6761,113.5931,17.59,33,1,6.92,RU,2024-06-07
506,ouadda,8.0777,22.4007,19.55,96,100,3.24,CF,2024-06-07
507,tupiza,-21.45,-65.7167,11.84,13,12,2.67,BO,2024-06-07
508,sirte,31.2089,16.5887,21.68,66,0,1.25,LY,2024-06-07
509,the pas,53.8251,-101.2541,9.01,76,75,5.14,CA,2024-06-07
510,lae,-6.7221,146.9847,32.37,70,19,3.42,PG,2024-06-07
511,cuito,-12.3833,16.9333,13.3,51,1,1.53,AO,2024-06-07
512,ambalavao,-21.8333,46.9333,12.63,92,0,0.58,MG,2024-06-07
513,weno,7.4515,151.8468,31.97,84,75,3.6,FM,2024-06-07
514,fale old settlement,-9.3852,-171.2468,29.32,72,13,2.31,TK,2024-06-07
515,oranjemund,-28.55,16.4333,14.83,55,0,4.43,NA,2024-06-07
516,saint-philippe,-21.3585,55.7679,19.77,83,37,3.48,RE,2024-06-07
517,bintulu,3.1667,113.0333,29.23,79,20,2.06,MY,2024-06-07
518,la passe,45.5549,-0.8967,18.13,84,100,3.7,FR,2024-06-07
519,itoman,26.1247,127.6694,29.01,82,75,8.23,JP,2024-06-07
520,undurkhaan,47.3194,110.6556,20.1,33,22,5.27,MN,2024-06-07
521,zaysan,47.4667,84.8667,26.66,35,45,4.23,KZ,2024-06-07
522,la foa,-21.7108,165.8276,27.36,49,29,5.15,NC,2024-06-07
523,sinop,41.7711,34.8709,16.51,62,100,1.25,TR,2024-06-07
524,kudahuvadhoo,2.6708,72.8944,28.5,75,99,5.66,MV,2024-06-07
525,decorah,43.3033,-91.7857,18.51,52,0,0.0,US,2024-06-07
526,dawei,14.0833,98.2,27.55,83,100,2.81,MM,2024-06-07
527,tanah rata,4.475,101.3704,19.78,93,100,0.42,MY,2024-06-07
528,sao jose da coroa grande,-8.8978,-35.1478,24.46,89,99,0.91,BR,2024-06-07
529,nouadhibou,20.931,-17.0347,20.99,83,0,7.2,MR,2024-06-07
530,remire-montjoly,4.9167,-52.2667,25.02,100,75,1.03,GF,2024-06-07
531,beas de segura,38.2524,-2.8888,17.59,92,100,2.5,ES,2024-06-07
532,isla del bosque,22.7333,-105.85,26.03,76,46,2.71,MX,2024-06-07
533,at taj,24.2049,23.2857,26.97,28,0,4.69,LY,2024-06-07
534,ayorou,14.7308,0.9174,33.68,38,99,4.28,NE,2024-06-07
535,mollendo,-17.0231,-72.0147,16.49,87,1,3.28,PE,2024-06-07
536,igrim,63.1906,64.4162,12.74,53,3,1.88,RU,2024-06-07
537,ciudad sandino,12.1589,-86.3442,25.7,94,40,0.0,NI,2024-06-07
538,dzhubga,44.3211,38.7039,18.47,65,0,3.96,RU,2024-06-07
539,belmonte,-15.8631,-38.8828,22.95,86,18,2.62,BR,2024-06-07
540,collie,-33.3667,116.15,12.64,96,100,1.8,AU,2024-06-07
541,bardai,11.65,7.2333,25.34,70,100,2.76,NG,2024-06-07
542,juegang,32.3174,121.1855,26.37,59,41,2.63,CN,2024-06-07
543,kalifornsky,60.4183,-151.29,15.22,48,20,5.14,US,2024-06-07
544,koh kong,11.6175,102.9806,30.1,69,100,4.62,KH,2024-06-07
545,suva,-18.1416,178.4415,24.71,88,75,3.09,FJ,2024-06-07
546,sotouboua,8.5667,0.9833,22.56,86,100,1.09,TG,2024-06-07
547,turkmenbasy,40.0222,52.9552,18.43,77,40,0.0,TM,2024-06-07
548,chonchi,-42.6128,-73.8092,12.56,98,100,0.8,CL,2024-06-07
549,maceio,-9.6658,-35.7353,23.69,94,75,1.54,BR,2024-06-07
550,kui buri,12.0828,99.8543,31.66,62,99,3.72,TH,2024-06-07
551,puerto san jose,13.9256,-90.8244,26.88,85,100,2.25,GT,2024-06-07
552,ajdabiya,30.7554,20.2263,21.25,79,0,5.36,LY,2024-06-07
553,makokou,0.5738,12.8642,21.2,99,66,1.17,GA,2024-06-07
554,port moresby,-9.4431,147.1797,29.68,70,40,5.14,PG,2024-06-07
555,umm kaddadah,13.6017,26.6876,27.29,55,52,4.77,SD,2024-06-07
556,kotri,25.366,68.3122,29.32,74,0,9.39,PK,2024-06-07
557,gore,-46.1028,168.9436,12.96,75,27,0.72,NZ,2024-06-07
558,makoua,0.0069,15.6333,22.91,97,95,0.94,CG,2024-06-07
559,juneau,58.3019,-134.4197,18.0,100,20,4.63,US,2024-06-07
560,richards bay,-28.783,32.0377,18.89,55,100,7.26,ZA,2024-06-07
561,kangasala,61.4638,24.076,6.75,100,100,1.55,FI,2024-06-07
562,mabini,15.6,120.9833,28.71,75,100,1.87,PH,2024-06-07
563,acapulco de juarez,16.8634,-99.8901,27.9,78,75,2.57,MX,2024-06-07
564,vila franca do campo,37.7167,-25.4333,18.27,99,98,0.43,PT,2024-06-07
