City_ID,City,Lat,Lng,Max Temp,Humidity,Cloudiness,Wind Speed,Country,Date
0,qaqortoq,60.7167,-46.0333,3.58,98,100,0.99,GL,2024-06-08
1,west island,-12.1568,96.8225,26.99,74,75,3.6,CC,2024-06-08
2,lompoc,34.6391,-120.4579,22.66,91,100,5.66,US,2024-06-08
3,chibougamau,49.9168,-74.3659,18.79,63,100,3.09,CA,2024-06-08
4,cockburn town,21.4612,-71.1419,28.03,83,100,6.33,TC,2024-06-08
5,mil'kovo,55.6078,37.7956,21.22,52,40,0.94,RU,2024-06-08
6,bethel,41.3712,-73.414,24.56,55,0,5.14,US,2024-06-08
7,afaahiti,-17.75,-149.2833,23.93,85,99,7.95,PF,2024-06-08
8,sanming,26.2486,117.6186,22.08,98,35,0.71,CN,2024-06-08
9,freetown,8.484,-13.2299,27.84,61,75,2.57,SL,2024-06-08
10,puerto natales,-51.7236,-72.4875,3.0,91,95,1.51,CL,2024-06-08
11,jamestown,42.097,-79.2353,21.12,44,40,9.77,US,2024-06-08
12,grytviken,-54.2811,-36.5092,-2.48,84,31,2.6,GS,2024-06-08
13,mount gambier,-37.8333,140.7667,9.77,84,90,2.21,AU,2024-06-08
14,gao,16.6362,1.637,40.6,15,3,1.74,ML,2024-06-08
15,berdigestyakh,62.0989,126.6992,9.74,71,39,1.54,RU,2024-06-08
16,denia,38.8408,0.1057,26.98,61,65,5.81,ES,2024-06-08
17,albany,42.6001,-73.9662,20.88,65,88,0.89,US,2024-06-08
18,kuqa,41.7278,82.9364,26.12,22,51,4.12,CN,2024-06-08
19,ivdel',60.6911,60.4206,13.44,75,62,2.24,RU,2024-06-08
20,anaco,9.4389,-64.4728,33.5,47,54,4.36,VE,2024-06-08
21,edinburgh of the seven seas,-37.0676,-12.3116,16.05,91,98,12.11,SH,2024-06-08
22,blackmans bay,-43.0167,147.3167,8.74,91,100,0.45,AU,2024-06-08
23,stanley,54.868,-1.6985,14.77,50,20,9.77,GB,2024-06-08
24,usinsk,65.9939,57.5281,6.71,66,2,5.36,RU,2024-06-08
25,badger,64.8,-147.5333,23.14,32,0,6.69,US,2024-06-08
26,georgetown,5.4112,100.3354,29.97,79,20,1.54,MY,2024-06-08
27,port-aux-francais,-49.35,70.2167,6.17,96,100,15.15,TF,2024-06-08
28,ilulissat,69.2167,-51.1,4.01,75,0,3.6,GL,2024-06-08
29,la'ie,21.6477,-157.9253,26.7,77,16,1.34,US,2024-06-08
30,ribeira grande,38.5167,-28.7,21.22,83,40,6.17,PT,2024-06-08
31,manaquiri,-3.3167,-60.35,30.25,48,100,2.15,BR,2024-06-08
32,arraial do cabo,-22.9661,-42.0278,24.92,78,0,4.12,BR,2024-06-08
33,sitangkai,4.6628,119.3928,28.12,79,94,2.93,PH,2024-06-08
34,isafjordur,66.0755,-23.124,5.02,70,40,3.6,IS,2024-06-08
35,ryotsu-minato,38.0833,138.4333,17.58,92,100,1.98,JP,2024-06-08
36,tiksi,71.6872,128.8694,-0.07,91,82,4.23,RU,2024-06-08
37,sinabang,2.4803,96.3801,26.26,82,94,1.67,ID,2024-06-08
38,mugia,43.1041,-9.2179,15.51,85,100,10.6,ES,2024-06-08
39,borogontsy,62.6683,131.1683,8.75,72,17,2.56,RU,2024-06-08
40,adamstown,-25.066,-130.1015,22.72,82,67,4.1,PN,2024-06-08
41,wailua homesteads,22.0669,-159.378,27.24,84,100,4.12,US,2024-06-08
42,shinas,24.7433,56.4658,33.14,72,8,5.17,OM,2024-06-08
43,kalundborg,55.6795,11.0886,13.86,81,100,10.18,DK,2024-06-08
44,margaret river,-33.95,115.0667,16.57,88,100,9.65,AU,2024-06-08
45,longyearbyen,78.2186,15.6401,4.91,70,75,0.51,SJ,2024-06-08
46,quincy,42.2529,-71.0023,24.14,53,75,8.75,US,2024-06-08
47,saipan,15.1355,145.701,26.39,89,40,3.6,MP,2024-06-08
48,wenchang,30.904,118.4887,23.67,70,100,1.55,CN,2024-06-08
49,abepura,-2.6333,140.5833,24.45,100,40,1.03,ID,2024-06-08
50,laojunmiao,39.8333,97.7333,18.9,18,81,3.09,CN,2024-06-08
51,constantia,44.1833,28.65,21.5,68,47,3.62,RO,2024-06-08
52,ushuaia,-54.8,-68.3,-0.35,92,53,0.63,AR,2024-06-08
53,fortuna,40.5982,-124.1573,14.99,89,20,8.23,US,2024-06-08
54,bredasdorp,-34.5322,20.0403,10.43,85,87,1.2,ZA,2024-06-08
55,aljezur,37.3191,-8.8033,18.99,67,56,3.69,PT,2024-06-08
56,falaise,48.8922,-0.1953,15.51,81,70,3.46,FR,2024-06-08
57,atafu village,-8.5421,-172.5159,28.67,72,85,3.61,TK,2024-06-08
58,ballito,-29.539,31.2144,10.08,87,0,0.51,ZA,2024-06-08
59,walvis bay,-22.9575,14.5053,18.94,39,2,6.9,NA,2024-06-08
60,galliano,29.4422,-90.2992,35.0,55,0,1.54,US,2024-06-08
61,talnakh,69.4865,88.3972,1.78,98,93,4.47,RU,2024-06-08
62,urangan,-25.3,152.9,13.44,74,0,2.68,AU,2024-06-08
63,anadyr,64.75,177.4833,1.28,100,75,2.0,RU,2024-06-08
64,novohrad-volynskyi,50.5941,27.6165,15.08,79,23,2.95,UA,2024-06-08
65,yugorsk,61.3133,63.3319,12.6,72,56,2.41,RU,2024-06-08
66,remire-montjoly,4.9167,-52.2667,32.02,62,15,6.69,GF,2024-06-08
67,cornu luncii,47.4667,26.15,22.14,84,8,1.83,RO,2024-06-08
68,bilibino,68.0546,166.4372,5.54,51,0,1.28,RU,2024-06-08
69,alaghsas,17.0187,8.0168,38.94,24,65,5.14,NE,2024-06-08
70,indapur,18.3,73.25,26.2,92,100,0.83,IN,2024-06-08
71,san pedro pochutla,15.7333,-96.4667,29.84,57,100,2.54,MX,2024-06-08
72,san fernando,15.0286,120.6898,26.38,87,97,0.39,PH,2024-06-08
73,extrema,-22.8547,-46.3183,25.14,42,2,0.66,BR,2024-06-08
74,thal,35.4791,72.2439,9.12,76,89,2.43,PK,2024-06-08
75,muntok,-2.0667,105.1833,26.03,88,50,2.29,ID,2024-06-08
76,waging am see,47.9333,12.7333,19.14,96,100,3.77,DE,2024-06-08
77,polyarnyy,69.1989,33.4478,4.65,85,100,6.62,RU,2024-06-08
78,waitangi,-43.9535,-176.5597,8.23,83,4,2.68,NZ,2024-06-08
79,yellowknife,62.456,-114.3525,11.29,46,100,7.15,CA,2024-06-08
80,ust-nera,64.5667,143.2,4.52,55,12,1.66,RU,2024-06-08
81,tofol,5.3248,163.0078,28.73,78,73,5.49,FM,2024-06-08
82,labytnangi,66.6572,66.4183,0.77,80,24,3.25,RU,2024-06-08
83,howard springs,-12.497,131.047,15.95,88,3,3.08,AU,2024-06-08
84,hasaki,35.7333,140.8333,18.22,79,100,3.14,JP,2024-06-08
85,sungailiat,-1.85,106.1333,26.33,87,34,2.01,ID,2024-06-08
86,mulanje,-16.0316,35.5,17.58,97,87,6.23,MW,2024-06-08
87,mae chan,20.1467,99.8526,24.02,97,100,0.88,TH,2024-06-08
88,gadzhiyevo,69.2551,33.3362,4.48,86,100,6.79,RU,2024-06-08
89,olonkinbyen,70.9221,-8.7187,0.5,95,12,5.29,SJ,2024-06-08
90,kalmunai,7.4167,81.8167,27.43,78,95,6.36,LK,2024-06-08
91,hadibu,12.65,54.0333,28.73,77,81,6.86,YE,2024-06-08
92,la passe,45.5549,-0.8967,21.66,81,93,3.95,FR,2024-06-08
93,selfoss,63.9331,-20.9971,11.14,50,91,5.34,IS,2024-06-08
94,fale old settlement,-9.3852,-171.2468,28.6,69,78,2.36,TK,2024-06-08
95,qarqaraly,49.4058,75.4742,13.63,87,97,2.63,KZ,2024-06-08
96,vilyuchinsk,52.9306,158.4028,11.07,72,100,4.0,RU,2024-06-08
97,bull savanna,17.8868,-77.5902,28.16,73,100,7.33,JM,2024-06-08
98,keflavik,64.0049,-22.5624,8.95,65,75,5.14,IS,2024-06-08
99,honefoss,60.168,10.2565,9.84,93,100,1.75,NO,2024-06-08
100,kapa'a,22.0752,-159.319,27.99,84,100,4.12,US,2024-06-08
101,revda,56.801,59.9303,13.44,79,100,2.95,RU,2024-06-08
102,saint-francois,46.4154,3.9054,19.69,89,75,4.63,FR,2024-06-08
103,dudinka,69.4058,86.1778,2.04,97,99,4.02,RU,2024-06-08
104,bardai,11.65,7.2333,29.19,53,100,2.81,NG,2024-06-08
105,nyala,12.05,24.8833,26.77,54,96,5.38,SD,2024-06-08
106,poteau,35.0537,-94.6236,32.88,55,0,5.66,US,2024-06-08
107,papatowai,-46.5619,169.4708,7.68,89,85,3.24,NZ,2024-06-08
108,colonia,50.9333,6.95,19.36,48,0,7.2,DE,2024-06-08
109,nova vicosa,-17.8919,-39.3719,25.27,75,29,4.13,BR,2024-06-08
110,minas de marcona,-15.2119,-75.1103,20.08,53,42,4.35,PE,2024-06-08
111,lerwick,60.1545,-1.1494,9.0,83,97,10.24,GB,2024-06-08
112,benguela,-12.5763,13.4055,22.47,86,34,1.4,AO,2024-06-08
113,insar,53.8653,44.3738,15.78,94,4,3.01,RU,2024-06-08
114,iqaluit,63.7506,-68.5145,2.85,64,75,7.72,CA,2024-06-08
115,belonia,23.2528,91.4514,27.66,91,43,4.12,IN,2024-06-08
116,uturoa,-16.7333,-151.4333,26.76,78,10,4.79,PF,2024-06-08
117,morehead city,34.7229,-76.726,31.13,49,0,3.58,US,2024-06-08
118,happy valley-goose bay,53.3168,-60.3315,23.17,49,20,3.6,CA,2024-06-08
119,guerrero negro,27.9769,-114.0611,20.5,64,62,6.18,MX,2024-06-08
120,phrae,18.0833,100.0,21.45,97,100,1.27,TH,2024-06-08
121,lagunillas,10.1301,-71.2595,31.04,68,87,2.61,VE,2024-06-08
122,agboville,5.928,-4.2132,26.16,90,41,2.08,CI,2024-06-08
123,san patricio,28.017,-97.5169,34.74,39,1,5.73,US,2024-06-08
124,conde,-7.2597,-34.9075,28.7,74,75,6.69,BR,2024-06-08
125,mbanza kongo,-6.267,14.2401,23.61,69,88,1.73,AO,2024-06-08
126,lashkar gah,31.5938,64.3716,29.67,5,0,3.94,AF,2024-06-08
127,tual,-5.6667,132.75,26.81,81,73,9.54,ID,2024-06-08
128,hamilton,39.1834,-84.5333,24.41,65,40,2.06,US,2024-06-08
129,haiku-pauwela,20.9219,-156.3051,25.84,73,20,7.72,US,2024-06-08
130,pathardi,19.1667,75.1833,25.74,79,100,5.33,IN,2024-06-08
131,enewetak,11.3474,162.3373,28.27,81,33,6.72,MH,2024-06-08
132,okha,53.5739,142.9478,4.58,90,99,0.89,RU,2024-06-08
133,luderitz,-26.6481,15.1594,18.9,39,0,2.79,NA,2024-06-08
134,pinhao,-25.6956,-51.6597,23.07,42,20,2.27,BR,2024-06-08
135,petropavlovsk-kamchatsky,53.0452,158.6483,10.25,63,98,6.26,RU,2024-06-08
136,simmerath,50.6,6.3,16.24,63,75,3.6,DE,2024-06-08
137,argo,37.6333,22.7333,24.13,63,49,0.65,GR,2024-06-08
138,karasburg,-28.0167,18.75,12.29,37,0,5.38,NA,2024-06-08
139,saynshand,44.8824,110.1163,21.55,27,63,4.29,MN,2024-06-08
140,cortez,37.3489,-108.5859,28.85,18,0,1.54,US,2024-06-08
141,whitehorse,60.7161,-135.0538,15.45,40,90,0.89,CA,2024-06-08
142,weno,7.4515,151.8468,28.85,80,100,6.6,FM,2024-06-08
143,howrah,22.5892,88.3103,31.0,84,40,5.14,IN,2024-06-08
144,lihue,21.9789,-159.3672,27.58,79,100,4.12,US,2024-06-08
145,baiquan,47.5833,126.0833,12.46,93,98,2.75,CN,2024-06-08
146,dunda,-8.1167,34.25,18.1,57,3,1.56,TZ,2024-06-08
147,saint-denis,48.9167,2.3333,21.24,53,0,5.66,FR,2024-06-08
148,al bawiti,28.3492,28.8659,32.15,18,0,4.8,EG,2024-06-08
149,cafayate,-26.073,-65.9761,29.4,8,96,3.19,AR,2024-06-08
150,chonchi,-42.6128,-73.8092,12.84,94,100,4.99,CL,2024-06-08
151,hun,29.1268,15.9477,32.72,11,0,3.49,LY,2024-06-08
152,vadso,70.0744,29.7487,3.49,93,100,7.72,NO,2024-06-08
153,ancud,-41.8697,-73.8203,12.37,92,100,7.57,CL,2024-06-08
154,waingapu,-9.6567,120.2641,23.91,87,55,3.76,ID,2024-06-08
155,sitka,57.0531,-135.33,20.94,28,40,4.12,US,2024-06-08
156,college,64.8569,-147.8028,23.18,35,75,6.69,US,2024-06-08
157,quepos,9.4236,-84.1652,29.3,75,100,1.91,CR,2024-06-08
158,fort mcmurray,56.7268,-111.381,7.77,81,100,3.6,CA,2024-06-08
159,cabras,39.93,8.5314,29.6,29,72,6.1,IT,2024-06-08
160,puerto ayora,-0.7393,-90.3518,26.98,91,95,2.24,EC,2024-06-08
161,carnarvon,-24.8667,113.6333,22.77,73,2,7.67,AU,2024-06-08
162,cruzeiro do sul,-29.5128,-51.9853,28.6,67,79,1.29,BR,2024-06-08
163,pocone,-16.2567,-56.6228,35.55,18,26,3.79,BR,2024-06-08
164,port mathurin,-19.6833,63.4167,24.06,78,66,10.4,MU,2024-06-08
165,soc trang,9.6033,105.98,28.81,71,100,4.4,VN,2024-06-08
166,nemuro,43.3236,145.575,9.84,96,100,5.09,JP,2024-06-08
167,mazatlan,23.2167,-106.4167,31.98,70,20,2.06,MX,2024-06-08
168,hirara,24.8,125.2833,27.15,100,75,2.57,JP,2024-06-08
169,waspan,14.7419,-83.9717,33.34,51,100,1.47,NI,2024-06-08
170,hermanus,-34.4187,19.2345,9.89,75,89,2.32,ZA,2024-06-08
171,taco pozo,-25.6167,-63.2833,31.92,28,34,8.09,AR,2024-06-08
172,quellon,-43.1167,-73.6167,11.89,90,100,11.04,CL,2024-06-08
173,saint augustine beach,29.8505,-81.2654,37.25,62,0,4.12,US,2024-06-08
174,playa del ingles,27.7567,-15.5787,23.55,72,41,1.34,ES,2024-06-08
175,niedereschach,48.1333,8.5333,18.1,91,100,3.75,DE,2024-06-08
176,carbonear,47.7332,-53.2148,17.56,89,27,1.64,CA,2024-06-08
177,kavaratti,10.5669,72.642,27.53,85,100,5.09,IN,2024-06-08
178,garoowe,8.4054,48.4845,29.74,47,27,10.17,SO,2024-06-08
179,jizzax,40.1158,67.8422,27.08,29,0,3.13,UZ,2024-06-08
180,rio grande,-32.035,-52.0986,22.19,83,90,4.83,BR,2024-06-08
181,pisco,-13.7,-76.2167,18.03,88,100,2.06,PE,2024-06-08
182,pandan,14.0453,124.1694,26.9,84,92,1.27,PH,2024-06-08
183,chatham,51.3789,0.5279,19.09,51,68,4.83,GB,2024-06-08
184,yigo village,13.5361,144.8886,27.16,85,75,3.6,GU,2024-06-08
185,kaa-khem,51.6833,94.7333,18.56,66,65,2.1,RU,2024-06-08
186,jaru,-10.4389,-62.4664,32.42,39,0,1.4,BR,2024-06-08
187,renqiu,38.6989,116.0936,26.05,29,99,2.21,CN,2024-06-08
188,rongelap,11.1635,166.8941,28.33,82,75,7.36,MH,2024-06-08
189,ugoofaaru,5.6667,73.0,28.47,77,100,6.59,MV,2024-06-08
190,mount isa,-20.7333,139.5,7.87,81,0,2.06,AU,2024-06-08
191,markgroningen,48.9049,9.0806,19.92,80,100,1.34,DE,2024-06-08
192,ruidoso,33.3317,-105.673,30.34,16,0,4.12,US,2024-06-08
193,usogorsk,63.4106,48.6872,15.37,89,100,2.11,RU,2024-06-08
194,chernyshevskiy,63.0128,112.4714,5.65,94,53,1.69,RU,2024-06-08
195,queenstown,-31.8976,26.8753,8.7,64,4,0.9,ZA,2024-06-08
196,micheweni,-4.9667,39.8333,26.44,73,9,6.89,TZ,2024-06-08
197,peniscola,40.3359,0.3613,25.74,75,78,4.18,ES,2024-06-08
198,grand-bourg,15.8835,-61.3148,31.97,73,51,7.19,GP,2024-06-08
199,saldanha,-33.0117,17.9442,12.03,76,64,5.0,ZA,2024-06-08
200,olhao,37.0286,-7.8411,21.27,68,20,6.17,PT,2024-06-08
201,kerikeri,-35.2268,173.9474,16.62,94,100,2.68,NZ,2024-06-08
202,iskateley,67.6803,53.1512,4.45,73,85,4.92,RU,2024-06-08
203,shahrud,36.4182,54.9763,23.87,28,39,3.86,IR,2024-06-08
204,taksimo,56.3444,114.8794,6.49,89,17,0.79,RU,2024-06-08
205,nieuw amsterdam,5.8833,-55.0833,33.09,74,20,3.09,SR,2024-06-08
206,murakami,38.2333,139.4833,21.94,86,100,0.95,JP,2024-06-08
207,mel'nikovo,56.5558,84.085,16.81,98,98,3.35,RU,2024-06-08
208,tadine,-21.55,167.8833,22.45,83,100,3.88,NC,2024-06-08
209,namibe,-15.1961,12.1522,20.16,75,3,1.57,AO,2024-06-08
210,thompson,55.7435,-97.8558,4.09,93,100,4.12,CA,2024-06-08
211,kristiansund,63.1115,7.732,13.03,80,100,3.6,NO,2024-06-08
212,nizhnevartovsk,60.9344,76.5531,14.01,44,0,3.0,RU,2024-06-08
213,kailua-kona,19.6406,-155.9956,26.98,85,0,5.14,US,2024-06-08
214,buka,40.8108,69.1986,26.63,30,1,2.16,UZ,2024-06-08
215,maxixe,-23.8597,35.3472,19.9,68,40,5.14,MZ,2024-06-08
216,homer,59.6425,-151.5483,12.94,50,20,2.57,US,2024-06-08
217,utrik,11.2278,169.8474,27.96,81,75,7.45,MH,2024-06-08
218,isla mujeres,21.2311,-86.731,32.03,65,27,5.15,MX,2024-06-08
219,jianshui,23.6363,102.8264,20.28,99,89,1.06,CN,2024-06-08
220,coquimbo,-29.9533,-71.3436,16.85,74,75,4.12,CL,2024-06-08
221,ovalle,-30.5983,-71.2003,16.11,71,100,3.11,CL,2024-06-08
222,fort bragg,35.139,-79.006,31.62,32,0,2.06,US,2024-06-08
223,invercargill,-46.4,168.35,7.23,89,88,1.79,NZ,2024-06-08
224,antonio enes,-16.2325,39.9086,24.56,75,2,5.74,MZ,2024-06-08
225,port elizabeth,-33.918,25.5701,13.16,94,0,1.54,ZA,2024-06-08
226,cole harbour,44.6724,-63.4751,14.66,95,100,6.17,CA,2024-06-08
227,nuku'alofa,-21.1333,-175.2,21.19,73,40,3.6,TO,2024-06-08
228,murray bridge,-35.1167,139.2667,10.74,76,71,1.9,AU,2024-06-08
229,leander,30.5788,-97.8531,34.14,59,0,6.17,US,2024-06-08
230,akjoujt,19.6969,-14.4164,41.32,11,0,7.65,MR,2024-06-08
231,kodiak,57.79,-152.4072,7.73,87,100,11.83,US,2024-06-08
232,north bend,43.4065,-124.2243,22.91,77,0,6.17,US,2024-06-08
233,yarmouth,41.7057,-70.2286,23.31,67,20,7.72,US,2024-06-08
234,katsuura,35.1333,140.3,20.31,76,82,3.51,JP,2024-06-08
235,kuta,-8.7233,115.1723,25.97,100,40,2.68,ID,2024-06-08
236,conduaga,8.862,117.4893,25.34,91,100,2.59,PH,2024-06-08
237,bridgewater,44.3835,-64.5155,13.79,100,95,3.09,CA,2024-06-08
238,mogadishu,2.0371,45.3438,26.4,83,96,7.07,SO,2024-06-08
239,pacific grove,36.6177,-121.9166,19.66,83,75,3.09,US,2024-06-08
240,taoudenni,22.6783,-3.9836,45.24,7,3,1.43,ML,2024-06-08
241,san agustin de valle fertil,-30.6335,-67.4682,22.46,43,95,2.48,AR,2024-06-08
242,fortaleza,-3.7227,-38.5247,31.07,66,20,6.69,BR,2024-06-08
243,borba,-4.3878,-59.5939,32.54,54,96,1.34,BR,2024-06-08
244,waddan,29.1614,16.139,32.84,11,0,4.22,LY,2024-06-08
245,hazel grove,53.3833,-2.1167,14.68,61,40,6.17,GB,2024-06-08
246,punta arenas,-53.15,-70.9167,4.06,65,0,2.57,CL,2024-06-08
247,pahrump,36.2083,-115.9839,36.84,17,2,2.68,US,2024-06-08
248,port saint john's,-31.6229,29.5448,15.51,74,44,3.63,ZA,2024-06-08
249,hithadhoo,-0.6,73.0833,28.43,75,86,4.32,MV,2024-06-08
250,laguna,38.421,-121.4238,26.29,59,0,2.57,US,2024-06-08
251,isla vista,34.4133,-119.861,22.78,87,100,1.54,US,2024-06-08
252,st. john's,47.5649,-52.7093,17.31,80,40,6.69,CA,2024-06-08
253,itoman,26.1247,127.6694,26.43,100,100,3.6,JP,2024-06-08
254,taunggyi,20.7833,97.0333,19.5,95,96,1.64,MM,2024-06-08
255,sarina,-21.4333,149.2167,10.9,1,0,2.3,AU,2024-06-08
256,alice springs,-23.7,133.8833,4.75,93,0,0.0,AU,2024-06-08
257,batticaloa,7.7102,81.6924,28.1,77,94,1.09,LK,2024-06-08
258,sandnessjoen,66.0217,12.6316,18.29,69,76,4.72,NO,2024-06-08
259,archangelos,36.2149,28.1149,26.99,62,0,3.17,GR,2024-06-08
260,shalqar,47.8333,59.6,26.25,38,9,3.09,KZ,2024-06-08
261,tura,25.5198,90.2201,25.84,93,3,3.57,IN,2024-06-08
262,puerto aysen,-45.4,-72.7,8.41,98,100,2.38,CL,2024-06-08
263,avarua,-21.2078,-159.775,22.03,64,40,2.06,CK,2024-06-08
264,nichinan,31.6,131.3667,20.82,97,100,6.73,JP,2024-06-08
265,concepcion del oro,24.6333,-101.4167,24.46,26,72,1.32,MX,2024-06-08
266,conception bay south,47.4999,-52.9981,17.18,81,50,2.24,CA,2024-06-08
267,zouerate,22.7187,-12.4521,36.84,14,0,4.76,MR,2024-06-08
268,pasni,25.2631,63.471,29.15,82,19,7.32,PK,2024-06-08
269,saint-pierre,-21.3393,55.4781,21.82,78,40,2.06,RE,2024-06-08
270,egilsstadir,65.2653,-14.3948,6.95,70,75,1.54,IS,2024-06-08
271,kill devil hills,36.0307,-75.676,29.0,57,0,2.57,US,2024-06-08
272,erkelenz,51.0833,6.3167,19.11,68,53,4.35,DE,2024-06-08
273,miedzyrzecz,52.4446,15.578,25.04,49,70,3.75,PL,2024-06-08
274,aykhal,66.0,111.5,11.25,88,26,2.48,RU,2024-06-08
275,konarka,19.9,86.1167,29.53,83,29,9.77,IN,2024-06-08
276,darwin,-12.4611,130.8418,15.99,82,2,2.06,AU,2024-06-08
277,belleville,44.1788,-77.3705,20.29,66,100,6.75,CA,2024-06-08
278,timimoun,29.2639,0.231,43.21,7,0,6.17,DZ,2024-06-08
279,papao,-17.75,-149.55,24.82,84,87,6.69,PF,2024-06-08
280,lata,40.1629,-8.3327,20.04,47,72,2.83,PT,2024-06-08
281,mount pearl,47.5166,-52.7813,16.85,80,40,6.69,CA,2024-06-08
282,kapuskasing,49.4169,-82.4331,17.05,55,75,7.2,CA,2024-06-08
283,udachny,66.4167,112.4,13.58,80,86,1.83,RU,2024-06-08
284,castillos,-34.1667,-53.8333,20.5,83,100,2.89,UY,2024-06-08
285,bel ombre,-4.6167,55.4167,27.91,74,20,2.06,SC,2024-06-08
286,hami,42.8,93.45,27.48,15,30,4.37,CN,2024-06-08
287,freeport,40.6576,-73.5832,26.99,44,40,7.72,US,2024-06-08
288,forster,-32.1667,152.5167,10.16,91,0,4.91,AU,2024-06-08
289,forbes,-33.3833,148.0167,9.4,95,65,1.79,AU,2024-06-08
290,antalaha,-14.9003,50.2788,20.94,84,9,3.15,MG,2024-06-08
291,lebu,-37.6167,-73.65,12.55,93,100,8.5,CL,2024-06-08
292,mogocha,53.7333,119.7667,6.74,59,51,1.33,RU,2024-06-08
293,cabo san lucas,22.8909,-109.9124,29.23,53,50,3.13,MX,2024-06-08
294,susuman,62.7833,148.1667,3.88,69,100,11.18,RU,2024-06-08
295,suva,-18.1416,178.4415,23.71,94,75,3.6,FJ,2024-06-08
296,nuuk,64.1835,-51.7216,5.34,93,100,16.46,GL,2024-06-08
297,satow-oberhagen,54.0,11.8833,15.82,75,99,6.1,DE,2024-06-08
298,renon - ritten,46.5415,11.4573,18.03,69,20,2.57,IT,2024-06-08
299,vernon,50.2581,-119.2691,23.5,28,3,1.54,CA,2024-06-08
300,geneina,13.45,22.45,34.62,19,36,2.98,SD,2024-06-08
301,uttaradit,17.6667,100.5,25.01,95,94,0.69,TH,2024-06-08
302,manokwari,-0.8667,134.0833,26.12,80,100,1.52,ID,2024-06-08
303,gobabis,-22.45,18.9667,9.64,26,0,5.3,NA,2024-06-08
304,contai,21.7786,87.7536,29.7,81,51,9.29,IN,2024-06-08
305,dunedin,-45.8742,170.5036,6.0,98,88,0.45,NZ,2024-06-08
306,leava,-14.3,-178.1667,27.63,74,100,11.34,WF,2024-06-08
307,rabo de peixe,37.8,-25.5833,19.73,99,75,5.14,PT,2024-06-08
308,puerto el triunfo,13.2833,-88.55,25.9,90,100,2.01,SV,2024-06-08
309,murzuq,25.9155,13.9184,33.04,10,0,3.95,LY,2024-06-08
310,port lincoln,-34.7333,135.8667,12.88,80,83,2.81,AU,2024-06-08
311,lamu,-2.2717,40.902,26.25,76,51,7.34,KE,2024-06-08
312,camana,-16.6228,-72.7111,19.55,74,27,4.06,PE,2024-06-08
313,klyuchi,52.2667,79.1667,18.22,78,5,2.0,RU,2024-06-08
314,lagos,6.5833,3.75,28.18,96,100,2.62,NG,2024-06-08
315,kovdor,67.5662,30.4758,14.33,60,58,1.21,RU,2024-06-08
316,posto fiscal rolim de moura,-13.0833,-62.2667,35.95,23,0,0.73,BR,2024-06-08
317,yoakum,29.2878,-97.1519,35.69,33,0,5.58,US,2024-06-08
318,labuan,5.2767,115.2417,26.2,94,20,0.0,MY,2024-06-08
319,svay rieng,11.0879,105.7993,29.25,69,100,5.49,KH,2024-06-08
320,havre,49.5833,0.3333,16.3,77,20,3.6,FR,2024-06-08
321,camiri,-20.05,-63.5167,31.88,37,59,2.57,BO,2024-06-08
322,palikir - national government center,6.9248,158.1611,26.41,94,100,2.57,FM,2024-06-08
323,ad dabbah,18.05,30.95,40.5,10,32,4.08,SD,2024-06-08
324,kamaishi,39.2667,141.8833,16.04,92,100,3.15,JP,2024-06-08
325,tazovsky,67.4667,78.7,3.7,82,2,3.96,RU,2024-06-08
326,kenora,49.8167,-94.4337,20.54,40,75,5.14,CA,2024-06-08
327,vilyuysk,63.7553,121.6247,12.22,60,6,1.79,RU,2024-06-08
328,turpan,42.9333,89.1667,32.11,16,100,1.9,CN,2024-06-08
329,velingara,13.15,-14.1167,38.79,22,83,4.4,SN,2024-06-08
330,mahibadhoo,3.7833,72.9667,28.67,75,88,5.99,MV,2024-06-08
331,veshenskaya,49.6303,41.7334,23.95,56,87,4.92,RU,2024-06-08
332,portage la prairie,49.9728,-98.2926,21.05,30,95,5.34,CA,2024-06-08
333,jebrail,39.3992,47.0283,21.5,66,58,0.81,AZ,2024-06-08
334,zhanga buqtyrma,49.6295,83.5248,14.91,97,100,0.81,KZ,2024-06-08
335,takoradi,4.8845,-1.7554,26.33,85,82,4.26,GH,2024-06-08
336,zhezqazghan,47.7833,67.7667,27.76,27,77,4.46,KZ,2024-06-08
337,carutapera,-1.195,-46.02,30.53,62,62,4.41,BR,2024-06-08
338,rasht,37.2808,49.5832,23.9,88,20,0.0,IR,2024-06-08
339,les avirons,-21.2418,55.3394,21.03,78,40,2.06,RE,2024-06-08
340,pampas,-12.4,-74.9,14.92,17,7,2.89,PE,2024-06-08
341,anar darah,32.7587,61.654,30.05,14,0,10.02,AF,2024-06-08
342,santo antonio,-6.3106,-35.4789,28.38,72,89,5.54,BR,2024-06-08
343,moyale,3.5167,39.0584,22.68,64,98,1.62,KE,2024-06-08
344,yamba,-5.9,22.3,24.69,32,4,1.19,CD,2024-06-08
345,meizhou,24.2977,116.1072,23.61,99,43,0.94,CN,2024-06-08
346,boguchany,58.3814,97.4531,14.92,67,100,1.34,RU,2024-06-08
347,taldykorgan,45.0156,78.3739,17.91,65,58,3.15,KZ,2024-06-08
348,kirakira,-10.4544,161.9205,27.17,89,88,4.11,SB,2024-06-08
349,dapa,9.7594,126.0531,27.78,82,89,2.79,PH,2024-06-08
350,pacasmayo,-7.4006,-79.5714,21.61,71,85,6.4,PE,2024-06-08
351,capinopolis,-18.6819,-49.5697,30.73,28,2,3.54,BR,2024-06-08
352,uribia,11.7139,-72.266,33.98,51,39,7.96,CO,2024-06-08
353,geneva,41.8875,-88.3054,25.07,64,100,6.17,US,2024-06-08
354,buon ma thuot,12.6667,108.05,22.07,97,100,1.29,VN,2024-06-08
355,lauro de freitas,-12.8944,-38.3272,28.01,69,40,6.17,BR,2024-06-08
356,launceston,-41.45,147.1667,3.97,100,100,3.6,AU,2024-06-08
357,calvinia,-31.4707,19.776,11.5,45,14,2.25,ZA,2024-06-08
358,hawaiian paradise park,19.5933,-154.9731,26.04,78,20,1.54,US,2024-06-08
359,ar ruways,24.1103,52.7306,31.06,60,0,3.5,AE,2024-06-08
360,christchurch,-43.5333,172.6333,10.51,92,100,1.54,NZ,2024-06-08
361,bubaque,11.2833,-15.8333,26.5,76,74,4.91,GW,2024-06-08
362,lorengau,-2.0226,147.2712,26.87,85,51,2.09,PG,2024-06-08
363,shingu,33.7333,135.9833,18.87,91,86,0.46,JP,2024-06-08
364,san antonio de pale,-1.4014,5.6325,25.01,77,57,3.34,GQ,2024-06-08
365,bikenibeu village,1.3673,173.1241,24.98,100,75,0.51,KI,2024-06-08
366,zymohiria,48.5857,38.9273,21.72,53,100,2.45,UA,2024-06-08
367,novi sanzhary,49.3439,34.3108,18.17,91,98,2.7,UA,2024-06-08
368,saint-paul,-21.0096,55.2707,23.05,84,43,1.61,RE,2024-06-08
369,south hedland,-20.4089,118.5983,12.96,76,4,3.6,AU,2024-06-08
370,acapulco de juarez,16.8634,-99.8901,29.9,74,40,6.17,MX,2024-06-08
371,makhambet,47.6667,51.5833,25.77,42,74,3.64,KZ,2024-06-08
372,talara,-4.5772,-81.2719,27.42,57,0,9.26,PE,2024-06-08
373,kulhudhuffushi,6.6221,73.07,28.51,79,100,6.97,MV,2024-06-08
374,kolonia town,6.964,158.206,27.0,94,100,2.57,FM,2024-06-08
375,ta`u,-14.2336,-169.5144,26.66,74,85,10.9,AS,2024-06-08
376,zugdidi,42.5088,41.8709,18.45,99,67,0.63,GE,2024-06-08
377,miass,55.045,60.1083,14.11,93,100,2.24,RU,2024-06-08
378,vershino-darasunskiy,52.35,115.5167,4.67,94,63,0.69,RU,2024-06-08
379,tchintabaraden,15.8969,5.7985,37.81,28,20,4.82,NE,2024-06-08
380,nogliki,51.8333,143.1667,5.75,97,100,3.58,RU,2024-06-08
381,jawf al maqbabah,13.8378,45.8349,29.54,44,46,2.03,YE,2024-06-08
382,broome,42.2506,-75.833,21.5,67,100,6.69,US,2024-06-08
383,benghazi,32.1167,20.0667,24.24,70,0,6.25,LY,2024-06-08
384,yuzhno-kurilsk,44.0306,145.8556,11.32,98,100,3.78,RU,2024-06-08
385,qamdo,31.1667,97.2333,9.72,62,61,1.22,CN,2024-06-08
386,guymon,36.6828,-101.4816,32.0,40,0,4.63,US,2024-06-08
387,bocas del toro,9.3333,-82.25,30.59,70,76,2.71,PA,2024-06-08
388,praia da vitoria,38.7333,-27.0667,22.14,64,40,4.51,PT,2024-06-08
389,santo antonio do ica,-3.1022,-67.9397,30.26,67,94,1.09,BR,2024-06-08
390,lhasa,29.65,91.1,14.36,55,38,0.77,CN,2024-06-08
391,ketchikan,55.3422,-131.6461,17.97,55,0,2.57,US,2024-06-08
392,beli,7.8587,10.9719,28.07,70,94,0.42,NG,2024-06-08
393,harstad,68.799,16.5293,12.91,96,99,0.45,NO,2024-06-08
394,faya-largeau,17.9257,19.1043,38.4,7,1,4.12,TD,2024-06-08
395,ulsteinvik,62.3432,5.8487,12.5,90,100,2.8,NO,2024-06-08
396,guiping,23.3925,110.0814,24.6,99,100,2.32,CN,2024-06-08
397,farafangana,-22.8167,47.8333,21.6,86,3,6.94,MG,2024-06-08
398,berezovo,63.9381,65.0419,10.87,55,3,4.67,RU,2024-06-08
399,ashland,40.8167,-82.2665,24.98,71,82,5.01,US,2024-06-08
400,glogow,51.6636,16.0845,21.32,59,53,2.18,PL,2024-06-08
401,chico,39.7285,-121.8375,30.36,45,0,3.09,US,2024-06-08
402,san jose de jachal,-30.2406,-68.7469,21.11,23,11,3.09,AR,2024-06-08
403,codrington,-38.2667,141.9667,10.42,81,78,4.32,AU,2024-06-08
404,al jawf,29.5,38.75,34.04,12,7,3.77,SA,2024-06-08
405,aasiaat,68.7098,-52.8699,1.76,84,9,3.68,GL,2024-06-08
406,tekirova,36.5017,30.5272,26.48,47,100,3.21,TR,2024-06-08
407,mar del plata,-38.0023,-57.5575,14.49,97,100,5.66,AR,2024-06-08
408,luganville,-15.5333,167.1667,25.57,82,92,6.23,VU,2024-06-08
409,vylkove,45.4021,29.586,20.93,74,25,4.28,UA,2024-06-08
410,andover,51.2083,-1.4825,18.69,49,100,3.6,GB,2024-06-08
411,morant bay,17.8815,-76.4093,31.79,86,100,4.29,JM,2024-06-08
412,chadron,42.8294,-102.9999,16.86,88,100,0.0,US,2024-06-08
413,vila velha,-20.3297,-40.2925,25.97,69,40,2.57,BR,2024-06-08
414,nova sintra,14.8667,-24.7167,23.49,83,0,10.59,CV,2024-06-08
415,twon-brass,4.3151,6.2418,26.44,85,97,6.35,NG,2024-06-08
416,raja,8.4596,25.678,27.61,64,98,3.48,SS,2024-06-08
417,kut chap,17.4257,102.5669,26.22,84,100,2.1,TH,2024-06-08
418,harper,4.375,-7.7169,26.66,81,48,4.52,LR,2024-06-08
419,kodinsk,58.6881,99.1844,12.07,59,95,2.41,RU,2024-06-08
420,auki,-8.7676,160.7034,25.13,91,72,0.69,SB,2024-06-08
421,dazhou,31.2159,107.5009,19.67,89,100,1.51,CN,2024-06-08
422,kavieng,-2.5744,150.7967,28.0,79,42,4.07,PG,2024-06-08
423,tazacorte,28.629,-17.9293,22.86,80,75,3.6,ES,2024-06-08
424,puerto princesa,9.7392,118.7353,26.99,89,40,2.06,PH,2024-06-08
425,uzgen,40.7699,73.3007,23.16,54,33,3.46,KG,2024-06-08
426,daru,-9.0763,143.2092,25.36,89,79,6.44,PG,2024-06-08
427,kurchatov,51.6601,35.6521,16.23,89,98,2.88,RU,2024-06-08
428,pinkafeld,47.3667,16.1167,22.85,100,99,1.97,AT,2024-06-08
429,khandyga,62.6667,135.6,9.11,40,0,4.08,RU,2024-06-08
430,alofi,-19.0595,-169.9187,20.94,73,20,3.6,NU,2024-06-08
431,naze,28.3667,129.4833,23.51,93,97,4.31,JP,2024-06-08
432,okhotsk,59.3833,143.3,3.87,88,47,2.21,RU,2024-06-08
433,amga,60.8953,131.9608,8.49,94,38,1.09,RU,2024-06-08
434,samarinda,-0.5,117.15,23.59,99,51,0.77,ID,2024-06-08
435,al burayqah,30.4062,19.5739,23.67,74,0,6.3,LY,2024-06-08
436,menongue,-14.6585,17.691,17.16,35,5,2.34,AO,2024-06-08
437,hays,30.0502,-98.0336,34.01,58,3,3.13,US,2024-06-08
438,bom jesus da lapa,-13.255,-43.4181,34.13,23,2,3.07,BR,2024-06-08
439,taitung city,22.7583,121.1444,26.59,86,37,0.25,TW,2024-06-08
440,estes park,40.3772,-105.5217,23.75,49,38,2.98,US,2024-06-08
441,east london,-33.0153,27.9116,13.52,82,0,2.06,ZA,2024-06-08
442,punta del este,-34.9667,-54.95,24.06,85,0,2.24,UY,2024-06-08
443,tsiombe,-25.3,45.4833,19.94,63,58,4.99,MG,2024-06-08
444,santana,-0.0583,-51.1817,31.1,66,75,6.17,BR,2024-06-08
445,inarajan village,13.2736,144.7484,28.08,91,82,4.79,GU,2024-06-08
446,pattaya,12.9333,100.8833,30.02,75,94,6.89,TH,2024-06-08
447,grootfontein,-19.5667,18.1167,8.76,46,1,0.0,NA,2024-06-08
448,san francisco,37.7749,-122.4194,23.55,84,75,7.2,US,2024-06-08
449,tolanaro,-25.0319,46.9987,21.04,83,75,6.17,MG,2024-06-08
450,kone,-21.0595,164.8658,20.96,94,98,2.09,NC,2024-06-08
451,birjand,32.8663,59.2211,22.26,14,0,3.09,IR,2024-06-08
452,aberdeen,57.1437,-2.0981,9.55,70,82,8.23,GB,2024-06-08
453,lodja,-3.4833,23.4333,24.44,44,35,0.96,CD,2024-06-08
454,northfield,44.4583,-93.1616,22.63,52,40,5.14,US,2024-06-08
455,khairpur mir's,27.5295,68.7617,34.0,23,61,3.31,PK,2024-06-08
456,strezhevoy,60.7333,77.5889,11.09,86,59,1.79,RU,2024-06-08
457,le vauclin,14.5452,-60.8388,32.03,66,75,8.23,MQ,2024-06-08
458,shendi,16.6915,33.4341,39.45,19,32,5.66,SD,2024-06-08
459,newman,37.3138,-121.0208,26.14,50,63,1.34,US,2024-06-08
460,castelo,-20.6036,-41.1847,26.99,55,9,2.59,BR,2024-06-08
461,roma,43.2128,-75.4557,20.46,70,75,8.23,US,2024-06-08
462,ouadda,8.0777,22.4007,20.78,96,99,4.65,CF,2024-06-08
463,portland,45.5234,-122.6762,25.0,49,75,3.6,US,2024-06-08
464,colares,38.7992,-9.4469,21.0,90,40,5.81,PT,2024-06-08
465,chui,-33.6971,-53.4616,19.65,89,100,3.09,UY,2024-06-08
466,banda aceh,5.5577,95.3222,27.68,76,44,4.62,ID,2024-06-08
467,aleg,17.0481,-13.9209,44.21,12,3,2.98,MR,2024-06-08
468,port alfred,-33.5906,26.891,15.55,78,26,4.91,ZA,2024-06-08
469,vila do maio,15.1333,-23.2167,26.44,84,4,7.95,CV,2024-06-08
470,polignano a mare,40.9959,17.2159,30.07,52,6,1.14,IT,2024-06-08
471,sosnovoborsk,56.1325,93.3589,17.57,95,89,2.16,RU,2024-06-08
472,zhob,31.3411,69.4481,25.76,30,8,2.57,PK,2024-06-08
473,dali,25.7,100.1833,18.56,88,11,1.84,CN,2024-06-08
474,coari,-4.085,-63.1414,34.07,40,100,1.62,BR,2024-06-08
475,copala,16.65,-98.9833,31.8,50,52,4.5,MX,2024-06-08
476,santa cruz,-17.8,-63.1667,31.03,51,20,9.26,BO,2024-06-08
477,sultanah,24.4926,39.5857,41.25,9,75,7.2,SA,2024-06-08
478,crane,31.3974,-102.3501,34.74,29,95,9.28,US,2024-06-08
479,virginia beach,36.8529,-75.978,31.68,38,40,4.12,US,2024-06-08
480,troitsko-pechorsk,62.7084,56.1964,15.94,66,72,1.79,RU,2024-06-08
481,bamboo flat,11.7,92.7167,26.05,94,40,0.51,IN,2024-06-08
482,grand gaube,-20.0064,57.6608,24.22,85,47,2.24,MU,2024-06-08
483,severo-yeniseyskiy,60.3725,93.0408,11.43,70,100,4.02,RU,2024-06-08
484,saint-felix-de-valois,46.1668,-73.4324,21.25,69,90,3.87,CA,2024-06-08
485,santa isabel,-23.3156,-46.2214,27.61,50,1,1.21,BR,2024-06-08
486,pingnan,23.5543,110.3976,24.53,99,100,1.48,CN,2024-06-08
487,shimanovsk,52.0,127.7,11.92,60,100,1.56,RU,2024-06-08
488,smithers,54.7804,-127.1743,19.52,32,69,2.73,CA,2024-06-08
489,angaur state,6.906,134.13,28.8,77,97,5.34,PW,2024-06-08
490,kargasok,59.0556,80.8572,13.31,82,100,2.68,RU,2024-06-08
491,fort st. john,56.2499,-120.8529,8.94,57,75,6.17,CA,2024-06-08
492,minab,27.1467,57.0801,33.56,29,87,2.08,IR,2024-06-08
493,makhjan,17.2698,73.5003,25.61,94,100,1.52,IN,2024-06-08
494,timbiqui,2.7717,-77.6654,28.27,82,70,3.22,CO,2024-06-08
495,siwa oasis,29.2041,25.5195,33.29,18,0,3.76,EG,2024-06-08
496,kelibia,36.8476,11.0939,25.14,73,0,3.09,TN,2024-06-08
497,la ronge,55.1001,-105.2842,9.14,61,100,5.66,CA,2024-06-08
498,issa,53.8705,44.8578,17.3,95,6,3.25,RU,2024-06-08
499,letovice,49.5471,16.5736,23.34,89,67,2.95,CZ,2024-06-08
500,kingston,17.997,-76.7936,31.2,72,100,4.61,JM,2024-06-08
501,karratha,-20.7377,116.8463,20.02,57,1,2.94,AU,2024-06-08
502,anchorage,61.2181,-149.9003,16.03,68,0,2.06,US,2024-06-08
503,cururupu,-1.8283,-44.8683,30.59,58,65,2.8,BR,2024-06-08
504,bovalino,38.149,16.174,25.94,62,0,0.97,IT,2024-06-08
505,kurumkan,54.3,110.3,16.18,47,100,2.24,RU,2024-06-08
506,aral,40.5156,81.2636,26.61,26,98,6.27,CN,2024-06-08
507,kirensk,57.7853,108.1119,8.31,72,22,1.79,RU,2024-06-08
508,camayenne,9.535,-13.6878,29.05,70,75,3.09,GN,2024-06-08
509,beoumi,7.6736,-5.5764,29.66,62,47,2.47,CI,2024-06-08
510,caleta de carquin,-11.0925,-77.6267,21.77,68,32,4.24,PE,2024-06-08
511,reggane,26.7158,0.1714,44.59,7,62,3.04,DZ,2024-06-08
512,zaozersk,69.4005,32.4476,3.63,87,100,8.28,RU,2024-06-08
513,san andres,12.5847,-81.7006,32.01,74,20,2.57,CO,2024-06-08
514,gurun,5.8172,100.4738,27.88,91,70,1.23,MY,2024-06-08
515,isangel,-19.55,169.2667,24.06,83,75,2.57,VU,2024-06-08
516,kongsberg,59.6652,9.6465,11.09,87,100,2.17,NO,2024-06-08
517,mahajanga,-15.7167,46.3167,26.01,83,20,3.09,MG,2024-06-08
518,nizhnekamsk,55.6366,51.8245,16.44,88,0,3.0,RU,2024-06-08
519,general villegas,-35.0328,-63.0125,24.51,58,100,5.98,AR,2024-06-08
520,magway,20.15,94.9167,28.6,72,49,3.23,MM,2024-06-08
521,mendi,-6.1761,143.6513,13.82,99,99,0.66,PG,2024-06-08
522,muslyumovo,55.3033,53.1947,17.56,84,97,3.02,RU,2024-06-08
523,majuro,7.0897,171.3803,27.98,83,75,2.57,MH,2024-06-08
524,verkhnedneprovskiy,54.9813,33.3457,11.55,95,74,3.02,RU,2024-06-08
525,taulaga,-11.0553,-171.0883,28.26,79,91,8.61,AS,2024-06-08
526,san julian,21.0167,-102.1667,28.64,24,23,5.0,MX,2024-06-08
527,illela,13.7292,5.2975,37.22,31,71,2.94,NG,2024-06-08
528,podgornoye,51.735,39.1496,19.25,72,0,1.0,RU,2024-06-08
529,antsiranana,-12.2787,49.2917,21.96,81,0,3.22,MG,2024-06-08
530,dehri,24.8667,84.1833,36.6,18,7,2.18,IN,2024-06-08
531,lang son,21.8333,106.7333,23.55,97,100,1.53,VN,2024-06-08
532,vuktyl,63.8567,57.3094,15.06,53,78,2.68,RU,2024-06-08
533,salinas,36.6777,-121.6555,20.55,75,100,4.63,US,2024-06-08
534,vila franca do campo,37.7167,-25.4333,20.23,99,77,3.63,PT,2024-06-08
535,ola,59.5833,151.2833,5.08,98,100,0.9,RU,2024-06-08
536,at taj,24.2049,23.2857,32.1,16,0,5.51,LY,2024-06-08
537,deqen,29.9618,90.7188,11.71,60,86,1.95,CN,2024-06-08
538,sparks,39.5349,-119.7527,31.32,22,75,2.68,US,2024-06-08
539,belmonte,-15.8631,-38.8828,25.62,77,14,3.98,BR,2024-06-08
540,khash,28.2211,61.2158,26.69,29,67,1.95,IR,2024-06-08
541,kotlas,61.2611,46.6556,15.59,87,100,1.79,RU,2024-06-08
542,wesselsbron,-27.8549,26.3658,10.67,46,0,3.02,ZA,2024-06-08
543,new norfolk,-42.7826,147.0587,9.4,94,100,0.74,AU,2024-06-08
544,taltal,-25.4,-70.4833,16.57,75,60,1.97,CL,2024-06-08
545,lubango,-14.9172,13.4925,15.88,45,1,1.79,AO,2024-06-08
546,nadi,-17.8,177.4167,24.0,73,75,5.66,FJ,2024-06-08
547,lazaro cardenas,17.9583,-102.2,29.69,58,42,4.69,MX,2024-06-08
548,cabedelo,-6.9811,-34.8339,29.37,79,57,5.9,BR,2024-06-08
549,ishpeming,46.4885,-87.6676,19.52,50,100,4.52,US,2024-06-08
550,tafuna,-14.3358,-170.72,27.27,71,75,10.53,AS,2024-06-08
551,kansk,56.2017,95.7175,14.02,95,83,2.62,RU,2024-06-08
552,bloomfield,40.8068,-74.1854,26.48,46,75,7.2,US,2024-06-08
553,arkalyk,50.2486,66.9114,20.07,65,95,4.08,KZ,2024-06-08
554,nzerekore,7.7562,-8.8179,24.56,94,65,1.18,GN,2024-06-08
555,wainwright,52.839,-110.8572,3.51,84,100,5.96,CA,2024-06-08
556,winmalee,-33.6799,150.6083,9.65,90,0,0.0,AU,2024-06-08
557,kirtipur,27.6667,85.2833,23.96,78,75,1.54,NP,2024-06-08
558,sharqpur sharif,31.4633,74.1,32.07,20,32,2.84,PK,2024-06-08
559,barcelos,41.5388,-8.6151,19.36,92,94,2.15,PT,2024-06-08
560,cill airne,52.05,-9.5167,13.03,58,40,4.12,IE,2024-06-08
561,beau vallon,-20.4189,57.6953,24.13,83,40,5.14,MU,2024-06-08
562,devils lake,48.1128,-98.8651,22.06,42,0,4.12,US,2024-06-08
563,lospalos,-8.5186,127.0025,19.21,93,35,3.0,TL,2024-06-08
564,turriff,57.5384,-2.4593,9.62,76,67,9.74,GB,2024-06-08
565,chapaev,50.2,51.1667,20.14,84,84,4.09,KZ,2024-06-08
566,akkarampalle,13.65,79.42,26.14,69,90,1.03,IN,2024-06-08
567,columbus,39.9612,-82.9988,25.64,46,75,6.17,US,2024-06-08
568,recani,31.2846,-4.2688,34.41,6,75,12.3,MA,2024-06-08
569,heilbron,-27.2812,27.9709,7.96,61,2,4.0,ZA,2024-06-08
570,soio,-6.1349,12.3689,23.0,83,25,3.19,AO,2024-06-08
571,jiuquan,39.7432,98.5174,21.4,19,80,2.58,CN,2024-06-08
572,sarykemer,43.0,71.5,19.71,40,38,1.44,KZ,2024-06-08
573,tartouss,34.889,35.8866,25.71,77,0,1.97,SY,2024-06-08
574,sungai penuh,-2.0833,101.3833,18.84,97,97,1.36,ID,2024-06-08
